{
  "generatedAt": "2026-02-11T02:12:40.248Z",
  "stations": [
    {
      "stnId": "90",
      "stnName": "속초",
      "lat": 38.25085,
      "lon": 128.56473,
      "nx": 87,
      "ny": 142,
      "areaCode": "L1020510",
      "areaName": "속초시평지",
      "sfcStnId": "90",
      "fctId": "11D20401"
    },
    {
      "stnId": "93",
      "stnName": "북춘천",
      "lat": 37.94738,
      "lon": 127.75443,
      "nx": 73,
      "ny": 135,
      "areaCode": "L1021600",
      "areaName": "춘천시",
      "sfcStnId": "101",
      "fctId": "11D10301"
    },
    {
      "stnId": "95",
      "stnName": "철원",
      "lat": 38.14787,
      "lon": 127.3042,
      "nx": 65,
      "ny": 139,
      "areaCode": "L1021300",
      "areaName": "철원군",
      "sfcStnId": "95",
      "fctId": "11D10101"
    },
    {
      "stnId": "96",
      "stnName": "독도",
      "lat": 37.23952,
      "lon": 131.86983,
      "nx": 144,
      "ny": 123,
      "areaCode": "L1072100",
      "areaName": "울릉도독도",
      "sfcStnId": "115",
      "fctId": "11E00102"
    },
    {
      "stnId": "98",
      "stnName": "동두천",
      "lat": 37.90188,
      "lon": 127.0607,
      "nx": 61,
      "ny": 134,
      "areaCode": "L1011100",
      "areaName": "동두천시",
      "sfcStnId": "98",
      "fctId": "11B20401"
    },
    {
      "stnId": "99",
      "stnName": "파주",
      "lat": 37.88589,
      "lon": 126.76648,
      "nx": 56,
      "ny": 134,
      "areaCode": "L1011800",
      "areaName": "파주시",
      "sfcStnId": "99",
      "fctId": "11B20305"
    },
    {
      "stnId": "100",
      "stnName": "대관령",
      "lat": 37.67713,
      "lon": 128.71834,
      "nx": 90,
      "ny": 130,
      "areaCode": "L1026020",
      "areaName": "평창군산간",
      "sfcStnId": "100",
      "fctId": "11D20201"
    },
    {
      "stnId": "101",
      "stnName": "춘천",
      "lat": 37.90262,
      "lon": 127.7357,
      "nx": 73,
      "ny": 134,
      "areaCode": "L1021600",
      "areaName": "춘천시",
      "sfcStnId": "101",
      "fctId": "11D10301"
    },
    {
      "stnId": "102",
      "stnName": "백령도",
      "lat": 37.97396,
      "lon": 124.71237,
      "nx": 21,
      "ny": 136,
      "areaCode": "L1014100",
      "areaName": "서해5도",
      "sfcStnId": "102",
      "fctId": "11A00101"
    },
    {
      "stnId": "104",
      "stnName": "북강릉",
      "lat": 37.80456,
      "lon": 128.85535,
      "nx": 92,
      "ny": 133,
      "areaCode": "L1020110",
      "areaName": "강릉시평지",
      "sfcStnId": "105",
      "fctId": "11D20501"
    },
    {
      "stnId": "105",
      "stnName": "강릉",
      "lat": 37.75147,
      "lon": 128.89099,
      "nx": 93,
      "ny": 132,
      "areaCode": "L1020110",
      "areaName": "강릉시평지",
      "sfcStnId": "105",
      "fctId": "11D20501"
    },
    {
      "stnId": "106",
      "stnName": "동해",
      "lat": 37.50709,
      "lon": 129.12433,
      "nx": 97,
      "ny": 126,
      "areaCode": "L1020210",
      "areaName": "동해시평지",
      "sfcStnId": "106",
      "fctId": "11D20601"
    },
    {
      "stnId": "108",
      "stnName": "서울",
      "lat": 37.57142,
      "lon": 126.9658,
      "nx": 60,
      "ny": 127,
      "areaCode": "L1100400",
      "areaName": "서울서북권",
      "sfcStnId": "108",
      "fctId": "11B10101"
    },
    {
      "stnId": "112",
      "stnName": "인천",
      "lat": 37.47772,
      "lon": 126.6249,
      "nx": 54,
      "ny": 125,
      "areaCode": "L1010800",
      "areaName": "인천광역시",
      "sfcStnId": "112",
      "fctId": "11B20201"
    },
    {
      "stnId": "114",
      "stnName": "원주",
      "lat": 37.33749,
      "lon": 127.94659,
      "nx": 77,
      "ny": 122,
      "areaCode": "L1021200",
      "areaName": "원주시",
      "sfcStnId": "114",
      "fctId": "11D10401"
    },
    {
      "stnId": "115",
      "stnName": "울릉도",
      "lat": 37.48129,
      "lon": 130.89863,
      "nx": 127,
      "ny": 127,
      "areaCode": "L1072100",
      "areaName": "울릉도독도",
      "sfcStnId": "115",
      "fctId": "11E00101"
    },
    {
      "stnId": "116",
      "stnName": "관악(레)",
      "lat": 37.44526,
      "lon": 126.96402,
      "nx": 60,
      "ny": 124,
      "areaCode": "L1010300",
      "areaName": "과천시",
      "sfcStnId": "590",
      "fctId": "11B10102"
    },
    {
      "stnId": "119",
      "stnName": "수원",
      "lat": 37.25746,
      "lon": 126.983,
      "nx": 60,
      "ny": 120,
      "areaCode": "L1011900",
      "areaName": "수원시",
      "sfcStnId": "119",
      "fctId": "11B20601"
    },
    {
      "stnId": "121",
      "stnName": "영월",
      "lat": 37.18126,
      "lon": 128.45743,
      "nx": 85,
      "ny": 119,
      "areaCode": "L1020800",
      "areaName": "영월군",
      "sfcStnId": "121",
      "fctId": "11D10501"
    },
    {
      "stnId": "127",
      "stnName": "충주",
      "lat": 36.97045,
      "lon": 127.9525,
      "nx": 77,
      "ny": 114,
      "areaCode": "L1040800",
      "areaName": "충주시",
      "sfcStnId": "127",
      "fctId": "11C10101"
    },
    {
      "stnId": "129",
      "stnName": "서산",
      "lat": 36.77658,
      "lon": 126.4939,
      "nx": 52,
      "ny": 109,
      "areaCode": "L1031300",
      "areaName": "서산시",
      "sfcStnId": "129",
      "fctId": "11C20101"
    },
    {
      "stnId": "130",
      "stnName": "울진",
      "lat": 36.99176,
      "lon": 129.41278,
      "nx": 102,
      "ny": 115,
      "areaCode": "L1072310",
      "areaName": "울진군평지",
      "sfcStnId": "130",
      "fctId": "11H10101"
    },
    {
      "stnId": "131",
      "stnName": "청주",
      "lat": 36.63924,
      "lon": 127.44066,
      "nx": 68,
      "ny": 107,
      "areaCode": "L1040100",
      "areaName": "청주시",
      "sfcStnId": "131",
      "fctId": "11C10301"
    },
    {
      "stnId": "133",
      "stnName": "대전",
      "lat": 36.37198,
      "lon": 127.37211,
      "nx": 67,
      "ny": 101,
      "areaCode": "L1030100",
      "areaName": "대전광역시",
      "sfcStnId": "133",
      "fctId": "11C20401"
    },
    {
      "stnId": "135",
      "stnName": "추풍령",
      "lat": 36.22025,
      "lon": 127.99458,
      "nx": 78,
      "ny": 98,
      "areaCode": "L1040700",
      "areaName": "영동군",
      "sfcStnId": "135",
      "fctId": "11C10401"
    },
    {
      "stnId": "136",
      "stnName": "안동",
      "lat": 36.57293,
      "lon": 128.70733,
      "nx": 90,
      "ny": 106,
      "areaCode": "L1071500",
      "areaName": "안동시",
      "sfcStnId": "136",
      "fctId": "11H10501"
    },
    {
      "stnId": "137",
      "stnName": "상주",
      "lat": 36.40837,
      "lon": 128.15741,
      "nx": 81,
      "ny": 102,
      "areaCode": "L1071200",
      "areaName": "상주시",
      "sfcStnId": "137",
      "fctId": "11H10302"
    },
    {
      "stnId": "138",
      "stnName": "포항",
      "lat": 36.03201,
      "lon": 129.38002,
      "nx": 102,
      "ny": 95,
      "areaCode": "L1072400",
      "areaName": "포항시",
      "sfcStnId": "138",
      "fctId": "11H10201"
    },
    {
      "stnId": "140",
      "stnName": "군산",
      "lat": 36.0053,
      "lon": 126.76135,
      "nx": 56,
      "ny": 93,
      "areaCode": "L1060300",
      "areaName": "군산시",
      "sfcStnId": "140",
      "fctId": "21F10501"
    },
    {
      "stnId": "143",
      "stnName": "대구",
      "lat": 35.87797,
      "lon": 128.65296,
      "nx": 90,
      "ny": 91,
      "areaCode": "L1070100",
      "areaName": "대구광역시",
      "sfcStnId": "143",
      "fctId": "11H10701"
    },
    {
      "stnId": "146",
      "stnName": "전주",
      "lat": 35.84092,
      "lon": 127.11718,
      "nx": 63,
      "ny": 89,
      "areaCode": "L1061300",
      "areaName": "전주시",
      "sfcStnId": "146",
      "fctId": "11F10201"
    },
    {
      "stnId": "155",
      "stnName": "창원",
      "lat": 35.17019,
      "lon": 128.57282,
      "nx": 89,
      "ny": 75,
      "areaCode": "L1080600",
      "areaName": "창원시",
      "sfcStnId": "155",
      "fctId": "11H20301"
    },
    {
      "stnId": "156",
      "stnName": "광주",
      "lat": 35.17294,
      "lon": 126.89156,
      "nx": 59,
      "ny": 75,
      "areaCode": "L1050100",
      "areaName": "광주광역시",
      "sfcStnId": "156",
      "fctId": "11F20501"
    },
    {
      "stnId": "162",
      "stnName": "통영",
      "lat": 34.84541,
      "lon": 128.43561,
      "nx": 87,
      "ny": 68,
      "areaCode": "L1082000",
      "areaName": "통영시",
      "sfcStnId": "162",
      "fctId": "11H20401"
    },
    {
      "stnId": "165",
      "stnName": "목포",
      "lat": 34.81732,
      "lon": 126.38151,
      "nx": 50,
      "ny": 67,
      "areaCode": "L1052100",
      "areaName": "목포시",
      "sfcStnId": "165",
      "fctId": "21F20801"
    },
    {
      "stnId": "168",
      "stnName": "여수",
      "lat": 34.73929,
      "lon": 127.74063,
      "nx": 74,
      "ny": 65,
      "areaCode": "L1051000",
      "areaName": "여수시",
      "sfcStnId": "168",
      "fctId": "11F20401"
    },
    {
      "stnId": "169",
      "stnName": "흑산도",
      "lat": 34.68719,
      "lon": 125.45105,
      "nx": 33,
      "ny": 64,
      "areaCode": "L1052500",
      "areaName": "흑산도홍도",
      "sfcStnId": "169",
      "fctId": "11F20701"
    },
    {
      "stnId": "170",
      "stnName": "완도",
      "lat": 34.3959,
      "lon": 126.70182,
      "nx": 56,
      "ny": 58,
      "areaCode": "L1051600",
      "areaName": "완도군",
      "sfcStnId": "170",
      "fctId": "11F20301"
    },
    {
      "stnId": "172",
      "stnName": "고창",
      "lat": 35.34824,
      "lon": 126.599,
      "nx": 54,
      "ny": 78,
      "areaCode": "L1060100",
      "areaName": "고창군",
      "sfcStnId": "172",
      "fctId": "21F10601"
    },
    {
      "stnId": "174",
      "stnName": "순천",
      "lat": 35.0204,
      "lon": 127.3694,
      "nx": 67,
      "ny": 71,
      "areaCode": "L1051200",
      "areaName": "순천시",
      "sfcStnId": "174",
      "fctId": "11F20603"
    },
    {
      "stnId": "175",
      "stnName": "진도(레)",
      "lat": 34.47211,
      "lon": 126.3238,
      "nx": 49,
      "ny": 59,
      "areaCode": "L1052300",
      "areaName": "진도군",
      "sfcStnId": "268",
      "fctId": "21F20201"
    },
    {
      "stnId": "177",
      "stnName": "홍성",
      "lat": 36.65759,
      "lon": 126.68772,
      "nx": 55,
      "ny": 107,
      "areaCode": "L1031600",
      "areaName": "홍성군",
      "sfcStnId": "177",
      "fctId": "11C20104"
    },
    {
      "stnId": "184",
      "stnName": "제주",
      "lat": 33.51411,
      "lon": 126.52969,
      "nx": 53,
      "ny": 38,
      "areaCode": "L1090700",
      "areaName": "제주도북부",
      "sfcStnId": "184",
      "fctId": "11G00201"
    },
    {
      "stnId": "185",
      "stnName": "고산",
      "lat": 33.29382,
      "lon": 126.16283,
      "nx": 46,
      "ny": 33,
      "areaCode": "L1090600",
      "areaName": "제주도서부",
      "sfcStnId": "779",
      "fctId": "11G00500"
    },
    {
      "stnId": "188",
      "stnName": "성산",
      "lat": 33.38677,
      "lon": 126.8802,
      "nx": 59,
      "ny": 36,
      "areaCode": "L1090800",
      "areaName": "제주도동부",
      "sfcStnId": "188",
      "fctId": "11G00100"
    },
    {
      "stnId": "189",
      "stnName": "서귀포",
      "lat": 33.24616,
      "lon": 126.5653,
      "nx": 53,
      "ny": 32,
      "areaCode": "L1090900",
      "areaName": "제주도남부",
      "sfcStnId": "189",
      "fctId": "11G00401"
    },
    {
      "stnId": "192",
      "stnName": "진주",
      "lat": 35.16378,
      "lon": 128.04004,
      "nx": 79,
      "ny": 75,
      "areaCode": "L1081400",
      "areaName": "진주시",
      "sfcStnId": "192",
      "fctId": "11H20701"
    },
    {
      "stnId": "201",
      "stnName": "강화",
      "lat": 37.70739,
      "lon": 126.44634,
      "nx": 51,
      "ny": 130,
      "areaCode": "L1010900",
      "areaName": "강화군",
      "sfcStnId": "201",
      "fctId": "11B20101"
    },
    {
      "stnId": "202",
      "stnName": "양평",
      "lat": 37.48863,
      "lon": 127.49446,
      "nx": 69,
      "ny": 125,
      "areaCode": "L1013500",
      "areaName": "양평군",
      "sfcStnId": "202",
      "fctId": "11B20503"
    },
    {
      "stnId": "203",
      "stnName": "이천",
      "lat": 37.26399,
      "lon": 127.48421,
      "nx": 69,
      "ny": 120,
      "areaCode": "L1013000",
      "areaName": "이천시",
      "sfcStnId": "203",
      "fctId": "11B20701"
    },
    {
      "stnId": "211",
      "stnName": "인제",
      "lat": 38.05986,
      "lon": 128.16714,
      "nx": 80,
      "ny": 138,
      "areaCode": "L1021810",
      "areaName": "인제군평지",
      "sfcStnId": "211",
      "fctId": "11D10201"
    },
    {
      "stnId": "212",
      "stnName": "홍천",
      "lat": 37.6836,
      "lon": 127.88043,
      "nx": 75,
      "ny": 130,
      "areaCode": "L1021510",
      "areaName": "홍천군평지",
      "sfcStnId": "212",
      "fctId": "11D10302"
    },
    {
      "stnId": "216",
      "stnName": "태백",
      "lat": 37.17038,
      "lon": 128.98929,
      "nx": 95,
      "ny": 119,
      "areaCode": "L1020300",
      "areaName": "태백시",
      "sfcStnId": "216",
      "fctId": "11D20301"
    },
    {
      "stnId": "217",
      "stnName": "정선군",
      "lat": 37.38149,
      "lon": 128.6459,
      "nx": 89,
      "ny": 123,
      "areaCode": "L1021010",
      "areaName": "정선군평지",
      "sfcStnId": "217",
      "fctId": "11D10502"
    },
    {
      "stnId": "221",
      "stnName": "제천",
      "lat": 37.15928,
      "lon": 128.19433,
      "nx": 81,
      "ny": 118,
      "areaCode": "L1040900",
      "areaName": "제천시",
      "sfcStnId": "221",
      "fctId": "11C10201"
    },
    {
      "stnId": "226",
      "stnName": "보은",
      "lat": 36.48761,
      "lon": 127.73415,
      "nx": 73,
      "ny": 104,
      "areaCode": "L1040300",
      "areaName": "보은군",
      "sfcStnId": "226",
      "fctId": "11C10302"
    },
    {
      "stnId": "229",
      "stnName": "북격렬비도",
      "lat": 36.62544,
      "lon": 25.55954,
      "nx": -1284,
      "ny": 1068,
      "areaCode": "L1031100",
      "areaName": "태안군",
      "sfcStnId": "627",
      "fctId": "11C20102"
    },
    {
      "stnId": "232",
      "stnName": "천안",
      "lat": 36.76217,
      "lon": 127.29282,
      "nx": 66,
      "ny": 109,
      "areaCode": "L1030200",
      "areaName": "천안시",
      "sfcStnId": "232",
      "fctId": "11C20301"
    },
    {
      "stnId": "235",
      "stnName": "보령",
      "lat": 36.32724,
      "lon": 126.55744,
      "nx": 53,
      "ny": 100,
      "areaCode": "L1031400",
      "areaName": "보령시",
      "sfcStnId": "235",
      "fctId": "11C20201"
    },
    {
      "stnId": "236",
      "stnName": "부여",
      "lat": 36.27242,
      "lon": 126.92079,
      "nx": 59,
      "ny": 99,
      "areaCode": "L1030800",
      "areaName": "부여군",
      "sfcStnId": "236",
      "fctId": "11C20501"
    },
    {
      "stnId": "238",
      "stnName": "금산",
      "lat": 36.10563,
      "lon": 127.48175,
      "nx": 69,
      "ny": 95,
      "areaCode": "L1030600",
      "areaName": "금산군",
      "sfcStnId": "238",
      "fctId": "11C20601"
    },
    {
      "stnId": "239",
      "stnName": "세종",
      "lat": 36.48522,
      "lon": 127.24438,
      "nx": 65,
      "ny": 103,
      "areaCode": "L1031800",
      "areaName": "세종시",
      "sfcStnId": "239",
      "fctId": "11C20404"
    },
    {
      "stnId": "243",
      "stnName": "부안",
      "lat": 35.72961,
      "lon": 126.71657,
      "nx": 56,
      "ny": 87,
      "areaCode": "L1060200",
      "areaName": "부안군",
      "sfcStnId": "243",
      "fctId": "21F10602"
    },
    {
      "stnId": "244",
      "stnName": "임실",
      "lat": 35.61203,
      "lon": 127.28556,
      "nx": 66,
      "ny": 84,
      "areaCode": "L1060900",
      "areaName": "임실군",
      "sfcStnId": "244",
      "fctId": "11F10402"
    },
    {
      "stnId": "245",
      "stnName": "정읍",
      "lat": 35.56337,
      "lon": 126.83904,
      "nx": 58,
      "ny": 83,
      "areaCode": "L1061200",
      "areaName": "정읍시",
      "sfcStnId": "245",
      "fctId": "11F10203"
    },
    {
      "stnId": "247",
      "stnName": "남원",
      "lat": 35.4213,
      "lon": 127.39652,
      "nx": 68,
      "ny": 80,
      "areaCode": "L1061400",
      "areaName": "남원시",
      "sfcStnId": "247",
      "fctId": "11F10401"
    },
    {
      "stnId": "248",
      "stnName": "장수",
      "lat": 35.65696,
      "lon": 127.52031,
      "nx": 70,
      "ny": 85,
      "areaCode": "L1060800",
      "areaName": "장수군",
      "sfcStnId": "248",
      "fctId": "11F10301"
    },
    {
      "stnId": "251",
      "stnName": "고창군",
      "lat": 35.42661,
      "lon": 126.697,
      "nx": 55,
      "ny": 80,
      "areaCode": "L1060100",
      "areaName": "고창군",
      "sfcStnId": "172",
      "fctId": "21F10601"
    },
    {
      "stnId": "252",
      "stnName": "영광군",
      "lat": 35.28366,
      "lon": 126.47784,
      "nx": 52,
      "ny": 77,
      "areaCode": "L1052000",
      "areaName": "영광군",
      "sfcStnId": "252",
      "fctId": "21F20102"
    },
    {
      "stnId": "253",
      "stnName": "김해시",
      "lat": 35.22981,
      "lon": 128.89075,
      "nx": 95,
      "ny": 77,
      "areaCode": "L1080900",
      "areaName": "김해시",
      "sfcStnId": "253",
      "fctId": "11H20304"
    },
    {
      "stnId": "254",
      "stnName": "순창군",
      "lat": 35.37131,
      "lon": 127.1286,
      "nx": 63,
      "ny": 79,
      "areaCode": "L1061000",
      "areaName": "순창군",
      "sfcStnId": "254",
      "fctId": "11F10403"
    },
    {
      "stnId": "255",
      "stnName": "북창원",
      "lat": 35.22655,
      "lon": 128.6726,
      "nx": 91,
      "ny": 77,
      "areaCode": "L1080600",
      "areaName": "창원시",
      "sfcStnId": "155",
      "fctId": "11H20301"
    },
    {
      "stnId": "257",
      "stnName": "양산시",
      "lat": 35.30737,
      "lon": 129.02009,
      "nx": 97,
      "ny": 78,
      "areaCode": "L1080500",
      "areaName": "양산시",
      "sfcStnId": "257",
      "fctId": "11H20102"
    },
    {
      "stnId": "258",
      "stnName": "보성군",
      "lat": 34.76335,
      "lon": 127.21226,
      "nx": 65,
      "ny": 66,
      "areaCode": "L1050900",
      "areaName": "보성군",
      "sfcStnId": "732",
      "fctId": "11F20404"
    },
    {
      "stnId": "259",
      "stnName": "강진군",
      "lat": 34.6289,
      "lon": 126.76715,
      "nx": 57,
      "ny": 63,
      "areaCode": "L1051400",
      "areaName": "강진군",
      "sfcStnId": "259",
      "fctId": "11F20303"
    },
    {
      "stnId": "260",
      "stnName": "장흥",
      "lat": 34.68886,
      "lon": 126.91951,
      "nx": 60,
      "ny": 64,
      "areaCode": "L1051300",
      "areaName": "장흥군",
      "sfcStnId": "260",
      "fctId": "11F20304"
    },
    {
      "stnId": "261",
      "stnName": "해남",
      "lat": 34.55375,
      "lon": 126.56907,
      "nx": 53,
      "ny": 61,
      "areaCode": "L1051500",
      "areaName": "해남군",
      "sfcStnId": "261",
      "fctId": "11F20302"
    },
    {
      "stnId": "262",
      "stnName": "고흥",
      "lat": 34.61826,
      "lon": 127.27572,
      "nx": 66,
      "ny": 63,
      "areaCode": "L1050800",
      "areaName": "고흥군",
      "sfcStnId": "262",
      "fctId": "11F20403"
    },
    {
      "stnId": "263",
      "stnName": "의령군",
      "lat": 35.32258,
      "lon": 128.28812,
      "nx": 84,
      "ny": 78,
      "areaCode": "L1081100",
      "areaName": "의령군",
      "sfcStnId": "263",
      "fctId": "11H20602"
    },
    {
      "stnId": "264",
      "stnName": "함양군",
      "lat": 35.51138,
      "lon": 127.74538,
      "nx": 74,
      "ny": 82,
      "areaCode": "L1081700",
      "areaName": "함양군",
      "sfcStnId": "264",
      "fctId": "11H20502"
    },
    {
      "stnId": "266",
      "stnName": "광양시",
      "lat": 34.9434,
      "lon": 127.6914,
      "nx": 73,
      "ny": 70,
      "areaCode": "L1051100",
      "areaName": "광양시",
      "sfcStnId": "266",
      "fctId": "11F20402"
    },
    {
      "stnId": "268",
      "stnName": "진도군",
      "lat": 34.47296,
      "lon": 126.25846,
      "nx": 48,
      "ny": 59,
      "areaCode": "L1052300",
      "areaName": "진도군",
      "sfcStnId": "268",
      "fctId": "21F20201"
    },
    {
      "stnId": "271",
      "stnName": "봉화",
      "lat": 36.94361,
      "lon": 128.91449,
      "nx": 94,
      "ny": 114,
      "areaCode": "L1072010",
      "areaName": "봉화군평지",
      "sfcStnId": "271",
      "fctId": "11H10402"
    },
    {
      "stnId": "272",
      "stnName": "영주",
      "lat": 36.87183,
      "lon": 128.51687,
      "nx": 87,
      "ny": 112,
      "areaCode": "L1071600",
      "areaName": "영주시",
      "sfcStnId": "272",
      "fctId": "11H10401"
    },
    {
      "stnId": "273",
      "stnName": "문경",
      "lat": 36.62727,
      "lon": 128.14879,
      "nx": 80,
      "ny": 107,
      "areaCode": "L1071300",
      "areaName": "문경시",
      "sfcStnId": "273",
      "fctId": "11H10301"
    },
    {
      "stnId": "276",
      "stnName": "청송군",
      "lat": 36.4351,
      "lon": 129.04005,
      "nx": 96,
      "ny": 103,
      "areaCode": "L1071800",
      "areaName": "청송군",
      "sfcStnId": "276",
      "fctId": "11H10503"
    },
    {
      "stnId": "277",
      "stnName": "영덕",
      "lat": 36.53337,
      "lon": 129.40926,
      "nx": 103,
      "ny": 105,
      "areaCode": "L1072200",
      "areaName": "영덕군",
      "sfcStnId": "277",
      "fctId": "11H10102"
    },
    {
      "stnId": "278",
      "stnName": "의성",
      "lat": 36.3561,
      "lon": 128.68864,
      "nx": 90,
      "ny": 101,
      "areaCode": "L1071700",
      "areaName": "의성군",
      "sfcStnId": "278",
      "fctId": "11H10502"
    },
    {
      "stnId": "279",
      "stnName": "구미",
      "lat": 36.13055,
      "lon": 128.32055,
      "nx": 84,
      "ny": 96,
      "areaCode": "L1070300",
      "areaName": "구미시",
      "sfcStnId": "279",
      "fctId": "11H10602"
    },
    {
      "stnId": "281",
      "stnName": "영천",
      "lat": 35.97742,
      "lon": 128.9514,
      "nx": 95,
      "ny": 93,
      "areaCode": "L1070400",
      "areaName": "영천시",
      "sfcStnId": "281",
      "fctId": "11H10702"
    },
    {
      "stnId": "283",
      "stnName": "경주시",
      "lat": 35.8174,
      "lon": 129.2009,
      "nx": 100,
      "ny": 90,
      "areaCode": "L1072500",
      "areaName": "경주시",
      "sfcStnId": "283",
      "fctId": "11H10202"
    },
    {
      "stnId": "284",
      "stnName": "거창",
      "lat": 35.66739,
      "lon": 127.9099,
      "nx": 77,
      "ny": 86,
      "areaCode": "L1081800",
      "areaName": "거창군",
      "sfcStnId": "284",
      "fctId": "11H20502"
    },
    {
      "stnId": "285",
      "stnName": "합천",
      "lat": 35.56505,
      "lon": 128.16994,
      "nx": 81,
      "ny": 84,
      "areaCode": "L1081900",
      "areaName": "합천군",
      "sfcStnId": "285",
      "fctId": "11H20503"
    },
    {
      "stnId": "288",
      "stnName": "밀양",
      "lat": 35.49147,
      "lon": 128.74412,
      "nx": 92,
      "ny": 82,
      "areaCode": "L1081000",
      "areaName": "밀양시",
      "sfcStnId": "288",
      "fctId": "11H20601"
    },
    {
      "stnId": "289",
      "stnName": "산청",
      "lat": 35.413,
      "lon": 127.8791,
      "nx": 76,
      "ny": 80,
      "areaCode": "L1081600",
      "areaName": "산청군",
      "sfcStnId": "289",
      "fctId": "11H20703"
    },
    {
      "stnId": "294",
      "stnName": "거제",
      "lat": 34.88818,
      "lon": 128.60459,
      "nx": 90,
      "ny": 69,
      "areaCode": "L1082200",
      "areaName": "거제시",
      "sfcStnId": "294",
      "fctId": "11H20403"
    },
    {
      "stnId": "295",
      "stnName": "남해",
      "lat": 34.81662,
      "lon": 127.92641,
      "nx": 78,
      "ny": 67,
      "areaCode": "L1082400",
      "areaName": "남해군",
      "sfcStnId": "295",
      "fctId": "11H20405"
    },
    {
      "stnId": "300",
      "stnName": "말도",
      "lat": 35.85799,
      "lon": 126.31507,
      "nx": 49,
      "ny": 89,
      "areaCode": "L1060300",
      "areaName": "군산시",
      "sfcStnId": "140",
      "fctId": "21F10501"
    },
    {
      "stnId": "301",
      "stnName": "임자도",
      "lat": 35.08704,
      "lon": 126.1199,
      "nx": 45,
      "ny": 73,
      "areaCode": "L1052200",
      "areaName": "신안군(흑산면제외)",
      "sfcStnId": "789",
      "fctId": "21F20803"
    },
    {
      "stnId": "302",
      "stnName": "장산도",
      "lat": 34.66473,
      "lon": 126.15928,
      "nx": 46,
      "ny": 63,
      "areaCode": "L1052200",
      "areaName": "신안군(흑산면제외)",
      "sfcStnId": "789",
      "fctId": "21F20803"
    },
    {
      "stnId": "303",
      "stnName": "가거도",
      "lat": 34.0725,
      "lon": 125.09722,
      "nx": 27,
      "ny": 51,
      "areaCode": "L1052500",
      "areaName": "흑산도홍도",
      "sfcStnId": "169",
      "fctId": "11F20701"
    },
    {
      "stnId": "304",
      "stnName": "신지도",
      "lat": 34.31801,
      "lon": 126.84849,
      "nx": 58,
      "ny": 56,
      "areaCode": "L1051600",
      "areaName": "완도군",
      "sfcStnId": "170",
      "fctId": "11F20301"
    },
    {
      "stnId": "305",
      "stnName": "여서도",
      "lat": 33.98622,
      "lon": 126.9201,
      "nx": 60,
      "ny": 49,
      "areaCode": "L1051600",
      "areaName": "완도군",
      "sfcStnId": "170",
      "fctId": "11F20301"
    },
    {
      "stnId": "306",
      "stnName": "소리도",
      "lat": 34.43185,
      "lon": 127.8011,
      "nx": 75,
      "ny": 59,
      "areaCode": "L1051000",
      "areaName": "여수시",
      "sfcStnId": "168",
      "fctId": "11F20401"
    },
    {
      "stnId": "308",
      "stnName": "옥도",
      "lat": 34.68703,
      "lon": 126.07303,
      "nx": 44,
      "ny": 64,
      "areaCode": "L1052200",
      "areaName": "신안군(흑산면제외)",
      "sfcStnId": "789",
      "fctId": "21F20803"
    },
    {
      "stnId": "310",
      "stnName": "궁촌",
      "lat": 37.32471,
      "lon": 129.26472,
      "nx": 99,
      "ny": 123,
      "areaCode": "L1020410",
      "areaName": "삼척시평지",
      "sfcStnId": "876",
      "fctId": "11D20603"
    },
    {
      "stnId": "311",
      "stnName": "가야산",
      "lat": 35.78915,
      "lon": 128.08673,
      "nx": 80,
      "ny": 88,
      "areaCode": "L1081900",
      "areaName": "합천군",
      "sfcStnId": "285",
      "fctId": "11H20503"
    },
    {
      "stnId": "312",
      "stnName": "주왕산",
      "lat": 36.39314,
      "lon": 129.14128,
      "nx": 98,
      "ny": 102,
      "areaCode": "L1071800",
      "areaName": "청송군",
      "sfcStnId": "276",
      "fctId": "11H10503"
    },
    {
      "stnId": "313",
      "stnName": "양지암",
      "lat": 34.89334,
      "lon": 128.7514,
      "nx": 92,
      "ny": 69,
      "areaCode": "L1082200",
      "areaName": "거제시",
      "sfcStnId": "294",
      "fctId": "11H20403"
    },
    {
      "stnId": "314",
      "stnName": "덕유봉",
      "lat": 35.86621,
      "lon": 127.74312,
      "nx": 74,
      "ny": 90,
      "areaCode": "L1060700",
      "areaName": "무주군",
      "sfcStnId": "701",
      "fctId": "11F10302"
    },
    {
      "stnId": "315",
      "stnName": "성삼재",
      "lat": 35.30673,
      "lon": 127.51079,
      "nx": 70,
      "ny": 78,
      "areaCode": "L1050500",
      "areaName": "구례군",
      "sfcStnId": "709",
      "fctId": "11F20601"
    },
    {
      "stnId": "316",
      "stnName": "무등산",
      "lat": 35.11438,
      "lon": 126.99743,
      "nx": 61,
      "ny": 73,
      "areaCode": "L1050100",
      "areaName": "광주광역시",
      "sfcStnId": "156",
      "fctId": "11F20501"
    },
    {
      "stnId": "317",
      "stnName": "모악산",
      "lat": 35.72951,
      "lon": 127.11418,
      "nx": 63,
      "ny": 87,
      "areaCode": "L1060500",
      "areaName": "완주군",
      "sfcStnId": "734",
      "fctId": "11F10204"
    },
    {
      "stnId": "318",
      "stnName": "용평",
      "lat": 37.64336,
      "lon": 128.67045,
      "nx": 89,
      "ny": 129,
      "areaCode": "L1026020",
      "areaName": "평창군산간",
      "sfcStnId": "100",
      "fctId": "11D20201"
    },
    {
      "stnId": "319",
      "stnName": "천부",
      "lat": 37.53726,
      "lon": 130.87084,
      "nx": 127,
      "ny": 129,
      "areaCode": "L1072100",
      "areaName": "울릉도독도",
      "sfcStnId": "115",
      "fctId": "11E00101"
    },
    {
      "stnId": "320",
      "stnName": "향로봉",
      "lat": 38.33104,
      "lon": 128.31375,
      "nx": 82,
      "ny": 144,
      "areaCode": "L1025020",
      "areaName": "인제군산간",
      "sfcStnId": "595",
      "fctId": "11D20100"
    },
    {
      "stnId": "321",
      "stnName": "원통",
      "lat": 38.1147,
      "lon": 128.1963,
      "nx": 80,
      "ny": 139,
      "areaCode": "L1025020",
      "areaName": "인제군산간",
      "sfcStnId": "595",
      "fctId": "11D20100"
    },
    {
      "stnId": "322",
      "stnName": "상서",
      "lat": 38.2155,
      "lon": 127.6698,
      "nx": 71,
      "ny": 141,
      "areaCode": "L1021400",
      "areaName": "화천군",
      "sfcStnId": "555",
      "fctId": "11D10102"
    },
    {
      "stnId": "323",
      "stnName": "마현",
      "lat": 38.2747,
      "lon": 127.553,
      "nx": 69,
      "ny": 142,
      "areaCode": "L1021300",
      "areaName": "철원군",
      "sfcStnId": "95",
      "fctId": "11D10101"
    },
    {
      "stnId": "324",
      "stnName": "송계",
      "lat": 36.91019,
      "lon": 128.07446,
      "nx": 79,
      "ny": 113,
      "areaCode": "L1040900",
      "areaName": "제천시",
      "sfcStnId": "221",
      "fctId": "11C10201"
    },
    {
      "stnId": "325",
      "stnName": "백운",
      "lat": 37.14449,
      "lon": 128.02526,
      "nx": 78,
      "ny": 118,
      "areaCode": "L1040900",
      "areaName": "제천시",
      "sfcStnId": "221",
      "fctId": "11C10201"
    },
    {
      "stnId": "326",
      "stnName": "용문산",
      "lat": 37.54553,
      "lon": 127.61126,
      "nx": 71,
      "ny": 126,
      "areaCode": "L1013500",
      "areaName": "양평군",
      "sfcStnId": "202",
      "fctId": "11B20503"
    },
    {
      "stnId": "327",
      "stnName": "우암산",
      "lat": 36.65026,
      "lon": 127.512,
      "nx": 69,
      "ny": 107,
      "areaCode": "L1040100",
      "areaName": "청주시",
      "sfcStnId": "131",
      "fctId": "11C10301"
    },
    {
      "stnId": "328",
      "stnName": "중문",
      "lat": 33.2494,
      "lon": 126.406,
      "nx": 50,
      "ny": 32,
      "areaCode": "L1090900",
      "areaName": "제주도남부",
      "sfcStnId": "189",
      "fctId": "11G00400"
    },
    {
      "stnId": "329",
      "stnName": "산천단",
      "lat": 33.44711,
      "lon": 126.56521,
      "nx": 53,
      "ny": 37,
      "areaCode": "L1090700",
      "areaName": "제주도북부",
      "sfcStnId": "184",
      "fctId": "11G00200"
    },
    {
      "stnId": "330",
      "stnName": "대흘",
      "lat": 33.50081,
      "lon": 126.64947,
      "nx": 55,
      "ny": 38,
      "areaCode": "L1090700",
      "areaName": "제주도북부",
      "sfcStnId": "184",
      "fctId": "11G00200"
    },
    {
      "stnId": "351",
      "stnName": "남면",
      "lat": 37.8953,
      "lon": 126.9789,
      "nx": 60,
      "ny": 134,
      "areaCode": "L1011600",
      "areaName": "양주시",
      "sfcStnId": "598",
      "fctId": "11B20304"
    },
    {
      "stnId": "352",
      "stnName": "장흥면",
      "lat": 37.7156,
      "lon": 126.9436,
      "nx": 59,
      "ny": 130,
      "areaCode": "L1011600",
      "areaName": "양주시",
      "sfcStnId": "598",
      "fctId": "11B20304"
    },
    {
      "stnId": "353",
      "stnName": "덕정동",
      "lat": 37.8414,
      "lon": 127.0683,
      "nx": 61,
      "ny": 133,
      "areaCode": "L1011600",
      "areaName": "양주시",
      "sfcStnId": "598",
      "fctId": "11B20304"
    },
    {
      "stnId": "355",
      "stnName": "서탄면",
      "lat": 37.1136,
      "lon": 127.0364,
      "nx": 61,
      "ny": 117,
      "areaCode": "L1012500",
      "areaName": "평택시",
      "sfcStnId": "551",
      "fctId": "11B20606"
    },
    {
      "stnId": "356",
      "stnName": "고덕면",
      "lat": 37.0481,
      "lon": 127.0183,
      "nx": 61,
      "ny": 115,
      "areaCode": "L1012500",
      "areaName": "평택시",
      "sfcStnId": "551",
      "fctId": "11B20606"
    },
    {
      "stnId": "358",
      "stnName": "현덕면",
      "lat": 36.9672,
      "lon": 126.9214,
      "nx": 59,
      "ny": 114,
      "areaCode": "L1012500",
      "areaName": "평택시",
      "sfcStnId": "551",
      "fctId": "11B20606"
    },
    {
      "stnId": "359",
      "stnName": "선단동",
      "lat": 37.8542,
      "lon": 127.1592,
      "nx": 63,
      "ny": 133,
      "areaCode": "L1011300",
      "areaName": "포천시",
      "sfcStnId": "504",
      "fctId": "11B20403"
    },
    {
      "stnId": "360",
      "stnName": "내촌면",
      "lat": 37.7861,
      "lon": 127.2283,
      "nx": 64,
      "ny": 132,
      "areaCode": "L1011300",
      "areaName": "포천시",
      "sfcStnId": "504",
      "fctId": "11B20403"
    },
    {
      "stnId": "361",
      "stnName": "영중면",
      "lat": 38.0053,
      "lon": 127.2447,
      "nx": 64,
      "ny": 136,
      "areaCode": "L1011300",
      "areaName": "포천시",
      "sfcStnId": "504",
      "fctId": "11B20403"
    },
    {
      "stnId": "364",
      "stnName": "분당구",
      "lat": 37.3828,
      "lon": 127.1189,
      "nx": 62,
      "ny": 123,
      "areaCode": "L1012000",
      "areaName": "성남시",
      "sfcStnId": "572",
      "fctId": "11B20605"
    },
    {
      "stnId": "365",
      "stnName": "석수동",
      "lat": 37.4089,
      "lon": 126.8953,
      "nx": 58,
      "ny": 123,
      "areaCode": "L1012100",
      "areaName": "안양시",
      "sfcStnId": "434",
      "fctId": "11B20602"
    },
    {
      "stnId": "366",
      "stnName": "오전동 *",
      "lat": 37.355,
      "lon": 126.9753,
      "nx": 60,
      "ny": 122,
      "areaCode": "L1012700",
      "areaName": "의왕시",
      "sfcStnId": "445",
      "fctId": "11B20609"
    },
    {
      "stnId": "367",
      "stnName": "신현동",
      "lat": 37.4061,
      "lon": 126.7844,
      "nx": 57,
      "ny": 123,
      "areaCode": "L1010500",
      "areaName": "시흥시",
      "sfcStnId": "565",
      "fctId": "11B20202"
    },
    {
      "stnId": "368",
      "stnName": "수택동",
      "lat": 37.5992,
      "lon": 127.1503,
      "nx": 63,
      "ny": 127,
      "areaCode": "L1012200",
      "areaName": "구리시",
      "sfcStnId": "569",
      "fctId": "11B20501"
    },
    {
      "stnId": "369",
      "stnName": "수리산길",
      "lat": 37.3642,
      "lon": 126.9169,
      "nx": 59,
      "ny": 122,
      "areaCode": "L1012600",
      "areaName": "군포시",
      "sfcStnId": "438",
      "fctId": "11B20610"
    },
    {
      "stnId": "370",
      "stnName": "이동묵리",
      "lat": 37.1789,
      "lon": 127.25,
      "nx": 65,
      "ny": 118,
      "areaCode": "L1012900",
      "areaName": "용인시",
      "sfcStnId": "549",
      "fctId": "11B20612"
    },
    {
      "stnId": "371",
      "stnName": "기흥구",
      "lat": 37.2772,
      "lon": 127.1164,
      "nx": 62,
      "ny": 120,
      "areaCode": "L1012900",
      "areaName": "용인시",
      "sfcStnId": "549",
      "fctId": "11B20612"
    },
    {
      "stnId": "372",
      "stnName": "은현면",
      "lat": 37.8722,
      "lon": 127.0267,
      "nx": 61,
      "ny": 133,
      "areaCode": "L1011600",
      "areaName": "양주시",
      "sfcStnId": "598",
      "fctId": "11B20304"
    },
    {
      "stnId": "373",
      "stnName": "남방",
      "lat": 37.7706,
      "lon": 127.0458,
      "nx": 61,
      "ny": 131,
      "areaCode": "L1011600",
      "areaName": "양주시",
      "sfcStnId": "598",
      "fctId": "11B20304"
    },
    {
      "stnId": "374",
      "stnName": "청북",
      "lat": 37.0467,
      "lon": 126.9706,
      "nx": 60,
      "ny": 115,
      "areaCode": "L1012500",
      "areaName": "평택시",
      "sfcStnId": "551",
      "fctId": "11B20606"
    },
    {
      "stnId": "375",
      "stnName": "백석읍",
      "lat": 37.7919,
      "lon": 126.9875,
      "nx": 60,
      "ny": 132,
      "areaCode": "L1011600",
      "areaName": "양주시",
      "sfcStnId": "598",
      "fctId": "11B20304"
    },
    {
      "stnId": "400",
      "stnName": "강남",
      "lat": 37.4982,
      "lon": 127.08162,
      "nx": 62,
      "ny": 125,
      "areaCode": "L1100100",
      "areaName": "서울동남권",
      "sfcStnId": "400",
      "fctId": "11B10101"
    },
    {
      "stnId": "401",
      "stnName": "서초",
      "lat": 37.48462,
      "lon": 127.02601,
      "nx": 61,
      "ny": 125,
      "areaCode": "L1100100",
      "areaName": "서울동남권",
      "sfcStnId": "108",
      "fctId": "11B10101"
    },
    {
      "stnId": "402",
      "stnName": "강동",
      "lat": 37.55552,
      "lon": 127.14498,
      "nx": 63,
      "ny": 127,
      "areaCode": "L1100100",
      "areaName": "서울동남권",
      "sfcStnId": "108",
      "fctId": "11B10101"
    },
    {
      "stnId": "403",
      "stnName": "송파 *",
      "lat": 37.51151,
      "lon": 127.0967,
      "nx": 62,
      "ny": 126,
      "areaCode": "L1100100",
      "areaName": "서울동남권",
      "sfcStnId": "108",
      "fctId": "11B10101"
    },
    {
      "stnId": "404",
      "stnName": "강서",
      "lat": 37.5739,
      "lon": 126.82953,
      "nx": 57,
      "ny": 127,
      "areaCode": "L1100300",
      "areaName": "서울서남권",
      "sfcStnId": "108",
      "fctId": "11B10101"
    },
    {
      "stnId": "405",
      "stnName": "양천 *",
      "lat": 37.52961,
      "lon": 126.8782,
      "nx": 58,
      "ny": 126,
      "areaCode": "L1100300",
      "areaName": "서울서남권",
      "sfcStnId": "108",
      "fctId": "11B10101"
    },
    {
      "stnId": "406",
      "stnName": "도봉",
      "lat": 37.66612,
      "lon": 127.02947,
      "nx": 61,
      "ny": 129,
      "areaCode": "L1100200",
      "areaName": "서울동북권",
      "sfcStnId": "108",
      "fctId": "11B10101"
    },
    {
      "stnId": "407",
      "stnName": "노원",
      "lat": 37.62186,
      "lon": 127.09192,
      "nx": 62,
      "ny": 128,
      "areaCode": "L1100200",
      "areaName": "서울동북권",
      "sfcStnId": "108",
      "fctId": "11B10101"
    },
    {
      "stnId": "408",
      "stnName": "동대문",
      "lat": 37.58463,
      "lon": 127.06036,
      "nx": 61,
      "ny": 127,
      "areaCode": "L1100200",
      "areaName": "서울동북권",
      "sfcStnId": "408",
      "fctId": "11B10101"
    },
    {
      "stnId": "409",
      "stnName": "중랑",
      "lat": 37.58551,
      "lon": 127.08682,
      "nx": 62,
      "ny": 127,
      "areaCode": "L1100200",
      "areaName": "서울동북권",
      "sfcStnId": "108",
      "fctId": "11B10101"
    },
    {
      "stnId": "410",
      "stnName": "기상청",
      "lat": 37.49371,
      "lon": 126.91809,
      "nx": 59,
      "ny": 125,
      "areaCode": "L1100300",
      "areaName": "서울서남권",
      "sfcStnId": "410",
      "fctId": "11B10101"
    },
    {
      "stnId": "411",
      "stnName": "마포",
      "lat": 37.55165,
      "lon": 126.92915,
      "nx": 59,
      "ny": 126,
      "areaCode": "L1100400",
      "areaName": "서울서북권",
      "sfcStnId": "108",
      "fctId": "11B10101"
    },
    {
      "stnId": "412",
      "stnName": "서대문",
      "lat": 37.57047,
      "lon": 126.94078,
      "nx": 59,
      "ny": 127,
      "areaCode": "L1100400",
      "areaName": "서울서북권",
      "sfcStnId": "108",
      "fctId": "11B10101"
    },
    {
      "stnId": "413",
      "stnName": "광진",
      "lat": 37.5338,
      "lon": 127.08566,
      "nx": 62,
      "ny": 126,
      "areaCode": "L1100200",
      "areaName": "서울동북권",
      "sfcStnId": "108",
      "fctId": "11B10101"
    },
    {
      "stnId": "414",
      "stnName": "성북",
      "lat": 37.61172,
      "lon": 126.99944,
      "nx": 60,
      "ny": 128,
      "areaCode": "L1100200",
      "areaName": "서울동북권",
      "sfcStnId": "108",
      "fctId": "11B10101"
    },
    {
      "stnId": "415",
      "stnName": "용산 *",
      "lat": 37.52038,
      "lon": 126.97611,
      "nx": 60,
      "ny": 126,
      "areaCode": "L1100400",
      "areaName": "서울서북권",
      "sfcStnId": "108",
      "fctId": "11B10101"
    },
    {
      "stnId": "416",
      "stnName": "은평",
      "lat": 37.64639,
      "lon": 126.94338,
      "nx": 59,
      "ny": 128,
      "areaCode": "L1100400",
      "areaName": "서울서북권",
      "sfcStnId": "108",
      "fctId": "11B10101"
    },
    {
      "stnId": "417",
      "stnName": "금천",
      "lat": 37.46551,
      "lon": 126.90016,
      "nx": 58,
      "ny": 125,
      "areaCode": "L1100300",
      "areaName": "서울서남권",
      "sfcStnId": "108",
      "fctId": "11B10101"
    },
    {
      "stnId": "418",
      "stnName": "한강",
      "lat": 37.52489,
      "lon": 126.93904,
      "nx": 59,
      "ny": 126,
      "areaCode": "L1100300",
      "areaName": "서울서남권",
      "sfcStnId": "108",
      "fctId": "11B10101"
    },
    {
      "stnId": "419",
      "stnName": "중구",
      "lat": 37.55236,
      "lon": 126.98736,
      "nx": 60,
      "ny": 126,
      "areaCode": "L1100400",
      "areaName": "서울서북권",
      "sfcStnId": "108",
      "fctId": "11B10101"
    },
    {
      "stnId": "421",
      "stnName": "성동",
      "lat": 37.54721,
      "lon": 127.03885,
      "nx": 61,
      "ny": 126,
      "areaCode": "L1100200",
      "areaName": "서울동북권",
      "sfcStnId": "108",
      "fctId": "11B10101"
    },
    {
      "stnId": "423",
      "stnName": "구로",
      "lat": 37.494,
      "lon": 126.827,
      "nx": 57,
      "ny": 125,
      "areaCode": "L1100300",
      "areaName": "서울서남권",
      "sfcStnId": "108",
      "fctId": "11B10101"
    },
    {
      "stnId": "424",
      "stnName": "강북",
      "lat": 37.63972,
      "lon": 127.02576,
      "nx": 61,
      "ny": 128,
      "areaCode": "L1100200",
      "areaName": "서울동북권",
      "sfcStnId": "108",
      "fctId": "11B10101"
    },
    {
      "stnId": "425",
      "stnName": "남현",
      "lat": 37.46336,
      "lon": 126.9855,
      "nx": 60,
      "ny": 124,
      "areaCode": "L1100300",
      "areaName": "서울서남권",
      "sfcStnId": "108",
      "fctId": "11B10101"
    },
    {
      "stnId": "426",
      "stnName": "백령(레)",
      "lat": 37.96611,
      "lon": 124.63048,
      "nx": 20,
      "ny": 135,
      "areaCode": "L1014100",
      "areaName": "서해5도",
      "sfcStnId": "102",
      "fctId": "11A00101"
    },
    {
      "stnId": "427",
      "stnName": "김포장기",
      "lat": 37.64279,
      "lon": 126.67343,
      "nx": 55,
      "ny": 128,
      "areaCode": "L1010700",
      "areaName": "김포시",
      "sfcStnId": "427",
      "fctId": "11B20102"
    },
    {
      "stnId": "428",
      "stnName": "하남덕풍",
      "lat": 37.55122,
      "lon": 127.21284,
      "nx": 64,
      "ny": 126,
      "areaCode": "L1012800",
      "areaName": "하남시",
      "sfcStnId": "428",
      "fctId": "11B20504"
    },
    {
      "stnId": "430",
      "stnName": "경기",
      "lat": 37.27183333,
      "lon": 127.01183333,
      "nx": 60,
      "ny": 120,
      "areaCode": "L1011900",
      "areaName": "수원시",
      "sfcStnId": "119",
      "fctId": "11B20601"
    },
    {
      "stnId": "431",
      "stnName": "신곡",
      "lat": 37.74602778,
      "lon": 127.07394444,
      "nx": 61,
      "ny": 131,
      "areaCode": "L1011700",
      "areaName": "의정부시",
      "sfcStnId": "532",
      "fctId": "11B20301"
    },
    {
      "stnId": "432",
      "stnName": "향남",
      "lat": 37.13107,
      "lon": 126.9204565,
      "nx": 59,
      "ny": 117,
      "areaCode": "L1013200",
      "areaName": "화성시",
      "sfcStnId": "571",
      "fctId": "11B20604"
    },
    {
      "stnId": "433",
      "stnName": "부천",
      "lat": 37.49758333,
      "lon": 126.76658333,
      "nx": 56,
      "ny": 125,
      "areaCode": "L1010600",
      "areaName": "부천시",
      "sfcStnId": "433",
      "fctId": "11B20204"
    },
    {
      "stnId": "434",
      "stnName": "안양",
      "lat": 37.39158333,
      "lon": 126.95891667,
      "nx": 60,
      "ny": 123,
      "areaCode": "L1012100",
      "areaName": "안양시",
      "sfcStnId": "434",
      "fctId": "11B20602"
    },
    {
      "stnId": "435",
      "stnName": "고잔",
      "lat": 37.32430556,
      "lon": 126.82119444,
      "nx": 57,
      "ny": 121,
      "areaCode": "L1010400",
      "areaName": "안산시",
      "sfcStnId": "545",
      "fctId": "11B20203"
    },
    {
      "stnId": "436",
      "stnName": "역삼",
      "lat": 37.23138889,
      "lon": 127.18927778,
      "nx": 64,
      "ny": 119,
      "areaCode": "L1012900",
      "areaName": "용인시",
      "sfcStnId": "549",
      "fctId": "11B20612"
    },
    {
      "stnId": "437",
      "stnName": "광명",
      "lat": 37.47577778,
      "lon": 126.86647222,
      "nx": 58,
      "ny": 125,
      "areaCode": "L1010200",
      "areaName": "광명시",
      "sfcStnId": "437",
      "fctId": "11B10103"
    },
    {
      "stnId": "438",
      "stnName": "군포",
      "lat": 37.35872222,
      "lon": 126.93747222,
      "nx": 59,
      "ny": 122,
      "areaCode": "L1012600",
      "areaName": "군포시",
      "sfcStnId": "438",
      "fctId": "11B20610"
    },
    {
      "stnId": "439",
      "stnName": "진안 *",
      "lat": 37.20605556,
      "lon": 127.03777778,
      "nx": 61,
      "ny": 119,
      "areaCode": "L1013200",
      "areaName": "화성시",
      "sfcStnId": "571",
      "fctId": "11B20604"
    },
    {
      "stnId": "440",
      "stnName": "설봉",
      "lat": 37.275,
      "lon": 127.44238889,
      "nx": 68,
      "ny": 121,
      "areaCode": "L1013000",
      "areaName": "이천시",
      "sfcStnId": "203",
      "fctId": "11B20701"
    },
    {
      "stnId": "441",
      "stnName": "김포",
      "lat": 37.64683333,
      "lon": 126.70472222,
      "nx": 55,
      "ny": 128,
      "areaCode": "L1010700",
      "areaName": "김포시",
      "sfcStnId": "427",
      "fctId": "11B20102"
    },
    {
      "stnId": "442",
      "stnName": "지월",
      "lat": 37.41605556,
      "lon": 127.28783333,
      "nx": 65,
      "ny": 124,
      "areaCode": "L1013400",
      "areaName": "광주시",
      "sfcStnId": "546",
      "fctId": "11B20702"
    },
    {
      "stnId": "443",
      "stnName": "보개",
      "lat": 37.01972222,
      "lon": 127.29194444,
      "nx": 65,
      "ny": 115,
      "areaCode": "L1013100",
      "areaName": "안성시",
      "sfcStnId": "516",
      "fctId": "11B20611"
    },
    {
      "stnId": "444",
      "stnName": "하남",
      "lat": 37.53591667,
      "lon": 127.21555556,
      "nx": 64,
      "ny": 126,
      "areaCode": "L1012800",
      "areaName": "하남시",
      "sfcStnId": "428",
      "fctId": "11B20504"
    },
    {
      "stnId": "445",
      "stnName": "의왕",
      "lat": 37.34172222,
      "lon": 126.97094444,
      "nx": 60,
      "ny": 122,
      "areaCode": "L1012700",
      "areaName": "의왕시",
      "sfcStnId": "445",
      "fctId": "11B20609"
    },
    {
      "stnId": "446",
      "stnName": "남촌 *",
      "lat": 37.13738889,
      "lon": 127.06577778,
      "nx": 61,
      "ny": 117,
      "areaCode": "L1012400",
      "areaName": "오산시",
      "sfcStnId": "550",
      "fctId": "11B20603"
    },
    {
      "stnId": "447",
      "stnName": "북내",
      "lat": 37.32622222,
      "lon": 127.68127778,
      "nx": 72,
      "ny": 122,
      "areaCode": "L1013300",
      "areaName": "여주시",
      "sfcStnId": "548",
      "fctId": "11B20703"
    },
    {
      "stnId": "448",
      "stnName": "산북",
      "lat": 37.39877778,
      "lon": 127.44516667,
      "nx": 68,
      "ny": 123,
      "areaCode": "L1013300",
      "areaName": "여주시",
      "sfcStnId": "548",
      "fctId": "11B20703"
    },
    {
      "stnId": "449",
      "stnName": "옥천",
      "lat": 37.50727778,
      "lon": 127.45222222,
      "nx": 68,
      "ny": 126,
      "areaCode": "L1013500",
      "areaName": "양평군",
      "sfcStnId": "202",
      "fctId": "11B20503"
    },
    {
      "stnId": "450",
      "stnName": "주교",
      "lat": 37.6555,
      "lon": 126.83336111,
      "nx": 57,
      "ny": 129,
      "areaCode": "L1011500",
      "areaName": "고양시",
      "sfcStnId": "540",
      "fctId": "11B20302"
    },
    {
      "stnId": "451",
      "stnName": "오남",
      "lat": 37.61069444,
      "lon": 127.15297222,
      "nx": 63,
      "ny": 128,
      "areaCode": "L1012300",
      "areaName": "남양주시",
      "sfcStnId": "541",
      "fctId": "11B20502"
    },
    {
      "stnId": "452",
      "stnName": "신북",
      "lat": 37.9312975,
      "lon": 127.22852861,
      "nx": 64,
      "ny": 135,
      "areaCode": "L1011300",
      "areaName": "포천시",
      "sfcStnId": "504",
      "fctId": "11B20403"
    },
    {
      "stnId": "453",
      "stnName": "소하",
      "lat": 37.44,
      "lon": 126.89833333,
      "nx": 58,
      "ny": 124,
      "areaCode": "L1010200",
      "areaName": "광명시",
      "sfcStnId": "437",
      "fctId": "11B10103"
    },
    {
      "stnId": "454",
      "stnName": "하봉암",
      "lat": 37.97125,
      "lon": 127.06961111,
      "nx": 61,
      "ny": 135,
      "areaCode": "L1011100",
      "areaName": "동두천시",
      "sfcStnId": "98",
      "fctId": "11B20401"
    },
    {
      "stnId": "455",
      "stnName": "읍내",
      "lat": 37.82822222,
      "lon": 127.512,
      "nx": 69,
      "ny": 133,
      "areaCode": "L1011400",
      "areaName": "가평군",
      "sfcStnId": "455",
      "fctId": "11B20404"
    },
    {
      "stnId": "456",
      "stnName": "연천",
      "lat": 38.09361111,
      "lon": 127.07780556,
      "nx": 61,
      "ny": 138,
      "areaCode": "L1011200",
      "areaName": "연천군",
      "sfcStnId": "652",
      "fctId": "11B20402"
    },
    {
      "stnId": "457",
      "stnName": "춘궁 *",
      "lat": 37.52202222,
      "lon": 127.19418056,
      "nx": 64,
      "ny": 126,
      "areaCode": "L1012800",
      "areaName": "하남시",
      "sfcStnId": "428",
      "fctId": "11B20504"
    },
    {
      "stnId": "458",
      "stnName": "퇴촌 *",
      "lat": 37.47469444,
      "lon": 127.30578056,
      "nx": 65,
      "ny": 125,
      "areaCode": "L1013400",
      "areaName": "광주시",
      "sfcStnId": "546",
      "fctId": "11B20702"
    },
    {
      "stnId": "459",
      "stnName": "오포",
      "lat": 37.345475,
      "lon": 127.19675556,
      "nx": 64,
      "ny": 122,
      "areaCode": "L1013400",
      "areaName": "광주시",
      "sfcStnId": "546",
      "fctId": "11B20702"
    },
    {
      "stnId": "460",
      "stnName": "실촌 *",
      "lat": 37.36640278,
      "lon": 127.40393889,
      "nx": 67,
      "ny": 122,
      "areaCode": "L1013400",
      "areaName": "광주시",
      "sfcStnId": "546",
      "fctId": "11B20702"
    },
    {
      "stnId": "461",
      "stnName": "마장",
      "lat": 37.24611111,
      "lon": 127.36011111,
      "nx": 66,
      "ny": 120,
      "areaCode": "L1013000",
      "areaName": "이천시",
      "sfcStnId": "203",
      "fctId": "11B20701"
    },
    {
      "stnId": "462",
      "stnName": "모가",
      "lat": 37.16913889,
      "lon": 127.48230556,
      "nx": 69,
      "ny": 118,
      "areaCode": "L1013000",
      "areaName": "이천시",
      "sfcStnId": "203",
      "fctId": "11B20701"
    },
    {
      "stnId": "463",
      "stnName": "흥천 *",
      "lat": 37.3327,
      "lon": 127.54124167,
      "nx": 70,
      "ny": 122,
      "areaCode": "L1013300",
      "areaName": "여주시",
      "sfcStnId": "548",
      "fctId": "11B20703"
    },
    {
      "stnId": "464",
      "stnName": "점동",
      "lat": 37.20612778,
      "lon": 127.66257222,
      "nx": 72,
      "ny": 119,
      "areaCode": "L1013300",
      "areaName": "여주시",
      "sfcStnId": "548",
      "fctId": "11B20703"
    },
    {
      "stnId": "465",
      "stnName": "가남",
      "lat": 37.20171944,
      "lon": 127.54510833,
      "nx": 70,
      "ny": 119,
      "areaCode": "L1013300",
      "areaName": "여주시",
      "sfcStnId": "548",
      "fctId": "11B20703"
    },
    {
      "stnId": "466",
      "stnName": "금사 *",
      "lat": 37.39278889,
      "lon": 127.533325,
      "nx": 69,
      "ny": 123,
      "areaCode": "L1013300",
      "areaName": "여주시",
      "sfcStnId": "548",
      "fctId": "11B20703"
    },
    {
      "stnId": "467",
      "stnName": "양성",
      "lat": 37.05979167,
      "lon": 127.19447778,
      "nx": 64,
      "ny": 116,
      "areaCode": "L1013100",
      "areaName": "안성시",
      "sfcStnId": "516",
      "fctId": "11B20611"
    },
    {
      "stnId": "468",
      "stnName": "서운",
      "lat": 36.94306944,
      "lon": 127.25922222,
      "nx": 65,
      "ny": 113,
      "areaCode": "L1013100",
      "areaName": "안성시",
      "sfcStnId": "516",
      "fctId": "11B20611"
    },
    {
      "stnId": "469",
      "stnName": "일죽 *",
      "lat": 37.0906,
      "lon": 127.47701111,
      "nx": 69,
      "ny": 117,
      "areaCode": "L1013100",
      "areaName": "안성시",
      "sfcStnId": "516",
      "fctId": "11B20611"
    },
    {
      "stnId": "470",
      "stnName": "고삼",
      "lat": 37.08270833,
      "lon": 127.26338611,
      "nx": 65,
      "ny": 116,
      "areaCode": "L1013100",
      "areaName": "안성시",
      "sfcStnId": "516",
      "fctId": "11B20611"
    },
    {
      "stnId": "471",
      "stnName": "송탄",
      "lat": 37.06644167,
      "lon": 127.06489722,
      "nx": 61,
      "ny": 116,
      "areaCode": "L1012500",
      "areaName": "평택시",
      "sfcStnId": "551",
      "fctId": "11B20606"
    },
    {
      "stnId": "472",
      "stnName": "포승",
      "lat": 36.98447778,
      "lon": 126.85348889,
      "nx": 58,
      "ny": 114,
      "areaCode": "L1012500",
      "areaName": "평택시",
      "sfcStnId": "551",
      "fctId": "11B20606"
    },
    {
      "stnId": "473",
      "stnName": "가산",
      "lat": 37.84861389,
      "lon": 127.18613611,
      "nx": 63,
      "ny": 133,
      "areaCode": "L1011300",
      "areaName": "포천시",
      "sfcStnId": "504",
      "fctId": "11B20403"
    },
    {
      "stnId": "474",
      "stnName": "영북",
      "lat": 38.08660556,
      "lon": 127.27225,
      "nx": 65,
      "ny": 138,
      "areaCode": "L1011300",
      "areaName": "포천시",
      "sfcStnId": "504",
      "fctId": "11B20403"
    },
    {
      "stnId": "475",
      "stnName": "관인",
      "lat": 38.15774722,
      "lon": 127.25119722,
      "nx": 64,
      "ny": 140,
      "areaCode": "L1011300",
      "areaName": "포천시",
      "sfcStnId": "504",
      "fctId": "11B20403"
    },
    {
      "stnId": "476",
      "stnName": "화현",
      "lat": 37.90134222,
      "lon": 127.29043138,
      "nx": 65,
      "ny": 134,
      "areaCode": "L1011300",
      "areaName": "포천시",
      "sfcStnId": "504",
      "fctId": "11B20403"
    },
    {
      "stnId": "477",
      "stnName": "상패 *",
      "lat": 37.90553056,
      "lon": 127.04395278,
      "nx": 61,
      "ny": 134,
      "areaCode": "L1011100",
      "areaName": "동두천시",
      "sfcStnId": "98",
      "fctId": "11B20401"
    },
    {
      "stnId": "478",
      "stnName": "왕징",
      "lat": 38.05586111,
      "lon": 127.01488889,
      "nx": 60,
      "ny": 137,
      "areaCode": "L1011200",
      "areaName": "연천군",
      "sfcStnId": "652",
      "fctId": "11B20402"
    },
    {
      "stnId": "479",
      "stnName": "장남",
      "lat": 37.97905556,
      "lon": 126.88630556,
      "nx": 58,
      "ny": 136,
      "areaCode": "L1011200",
      "areaName": "연천군",
      "sfcStnId": "652",
      "fctId": "11B20402"
    },
    {
      "stnId": "480",
      "stnName": "미산",
      "lat": 38.04469444,
      "lon": 126.99494444,
      "nx": 60,
      "ny": 137,
      "areaCode": "L1011200",
      "areaName": "연천군",
      "sfcStnId": "652",
      "fctId": "11B20402"
    },
    {
      "stnId": "481",
      "stnName": "탄현",
      "lat": 37.80241389,
      "lon": 126.71608889,
      "nx": 55,
      "ny": 132,
      "areaCode": "L1011800",
      "areaName": "파주시",
      "sfcStnId": "99",
      "fctId": "11B20305"
    },
    {
      "stnId": "482",
      "stnName": "광탄",
      "lat": 37.77626667,
      "lon": 126.85124167,
      "nx": 58,
      "ny": 131,
      "areaCode": "L1011800",
      "areaName": "파주시",
      "sfcStnId": "99",
      "fctId": "11B20305"
    },
    {
      "stnId": "483",
      "stnName": "진동",
      "lat": 37.92596944,
      "lon": 126.78706389,
      "nx": 56,
      "ny": 134,
      "areaCode": "L1011800",
      "areaName": "파주시",
      "sfcStnId": "99",
      "fctId": "11B20305"
    },
    {
      "stnId": "484",
      "stnName": "창현",
      "lat": 37.64657222,
      "lon": 127.31647778,
      "nx": 66,
      "ny": 129,
      "areaCode": "L1012300",
      "areaName": "남양주시",
      "sfcStnId": "541",
      "fctId": "11B20502"
    },
    {
      "stnId": "485",
      "stnName": "신천 *",
      "lat": 37.67618889,
      "lon": 127.49469167,
      "nx": 69,
      "ny": 129,
      "areaCode": "L1011400",
      "areaName": "가평군",
      "sfcStnId": "455",
      "fctId": "11B20404"
    },
    {
      "stnId": "486",
      "stnName": "외서",
      "lat": 37.73474722,
      "lon": 127.41439444,
      "nx": 67,
      "ny": 130,
      "areaCode": "L1011400",
      "areaName": "가평군",
      "sfcStnId": "455",
      "fctId": "11B20404"
    },
    {
      "stnId": "487",
      "stnName": "대곶",
      "lat": 37.646345,
      "lon": 126.58386722,
      "nx": 53,
      "ny": 128,
      "areaCode": "L1010700",
      "areaName": "김포시",
      "sfcStnId": "427",
      "fctId": "11B20102"
    },
    {
      "stnId": "488",
      "stnName": "송산",
      "lat": 37.21497222,
      "lon": 126.74116667,
      "nx": 56,
      "ny": 119,
      "areaCode": "L1013200",
      "areaName": "화성시",
      "sfcStnId": "571",
      "fctId": "11B20604"
    },
    {
      "stnId": "489",
      "stnName": "서신",
      "lat": 37.16375,
      "lon": 126.71091667,
      "nx": 55,
      "ny": 118,
      "areaCode": "L1013200",
      "areaName": "화성시",
      "sfcStnId": "571",
      "fctId": "11B20604"
    },
    {
      "stnId": "490",
      "stnName": "초성리",
      "lat": 38.0244444,
      "lon": 127.11,
      "nx": 62,
      "ny": 137,
      "areaCode": "L1011200",
      "areaName": "연천군",
      "sfcStnId": "652",
      "fctId": "11B20402"
    },
    {
      "stnId": "491",
      "stnName": "군남",
      "lat": 38.0822222,
      "lon": 127.0208333,
      "nx": 60,
      "ny": 138,
      "areaCode": "L1011200",
      "areaName": "연천군",
      "sfcStnId": "652",
      "fctId": "11B20402"
    },
    {
      "stnId": "492",
      "stnName": "학온동",
      "lat": 37.4217,
      "lon": 126.8575,
      "nx": 58,
      "ny": 124,
      "areaCode": "L1010200",
      "areaName": "광명시",
      "sfcStnId": "437",
      "fctId": "11B10103"
    },
    {
      "stnId": "493",
      "stnName": "송악",
      "lat": 36.72266,
      "lon": 127.00398,
      "nx": 60,
      "ny": 108,
      "areaCode": "L1030400",
      "areaName": "아산시",
      "sfcStnId": "634",
      "fctId": "11C20302"
    },
    {
      "stnId": "494",
      "stnName": "세종고운",
      "lat": 36.53152,
      "lon": 127.24064,
      "nx": 65,
      "ny": 104,
      "areaCode": "L1031800",
      "areaName": "세종시",
      "sfcStnId": "239",
      "fctId": "11C20404"
    },
    {
      "stnId": "495",
      "stnName": "공도",
      "lat": 36.98062,
      "lon": 127.16254,
      "nx": 63,
      "ny": 114,
      "areaCode": "L1013100",
      "areaName": "안성시",
      "sfcStnId": "516",
      "fctId": "11B20611"
    },
    {
      "stnId": "496",
      "stnName": "세종금남",
      "lat": 36.45853,
      "lon": 127.26876,
      "nx": 65,
      "ny": 103,
      "areaCode": "L1031800",
      "areaName": "세종시",
      "sfcStnId": "239",
      "fctId": "11C20404"
    },
    {
      "stnId": "497",
      "stnName": "삽당령",
      "lat": 37.57516,
      "lon": 128.85147,
      "nx": 92,
      "ny": 128,
      "areaCode": "L1026020",
      "areaName": "강릉시산간",
      "sfcStnId": "100",
      "fctId": "11D20200"
    },
    {
      "stnId": "498",
      "stnName": "구룡령",
      "lat": 37.87925,
      "lon": 128.51447,
      "nx": 86,
      "ny": 134,
      "areaCode": "L1026020",
      "areaName": "홍천군산간",
      "sfcStnId": "100",
      "fctId": "11D20200"
    },
    {
      "stnId": "499",
      "stnName": "중면",
      "lat": 38.13608,
      "lon": 127.02354,
      "nx": 60,
      "ny": 139,
      "areaCode": "L1011200",
      "areaName": "연천군",
      "sfcStnId": "652",
      "fctId": "11B20402"
    },
    {
      "stnId": "500",
      "stnName": "양도",
      "lat": 37.66571,
      "lon": 126.47015,
      "nx": 51,
      "ny": 129,
      "areaCode": "L1010900",
      "areaName": "강화군",
      "sfcStnId": "201",
      "fctId": "11B20101"
    },
    {
      "stnId": "501",
      "stnName": "대연평",
      "lat": 37.65891,
      "lon": 125.69819,
      "nx": 38,
      "ny": 129,
      "areaCode": "L1014100",
      "areaName": "서해5도",
      "sfcStnId": "102",
      "fctId": "11A00102"
    },
    {
      "stnId": "502",
      "stnName": "교동",
      "lat": 37.78944,
      "lon": 126.29164,
      "nx": 48,
      "ny": 131,
      "areaCode": "L1010900",
      "areaName": "강화군",
      "sfcStnId": "201",
      "fctId": "11B20101"
    },
    {
      "stnId": "503",
      "stnName": "도라산",
      "lat": 37.90804,
      "lon": 126.71193,
      "nx": 55,
      "ny": 134,
      "areaCode": "L1011800",
      "areaName": "파주시",
      "sfcStnId": "99",
      "fctId": "11B20305"
    },
    {
      "stnId": "504",
      "stnName": "포천",
      "lat": 37.87035,
      "lon": 127.18073,
      "nx": 63,
      "ny": 133,
      "areaCode": "L1011300",
      "areaName": "포천시",
      "sfcStnId": "504",
      "fctId": "11B20403"
    },
    {
      "stnId": "505",
      "stnName": "가평조종",
      "lat": 37.82439,
      "lon": 127.34543,
      "nx": 66,
      "ny": 132,
      "areaCode": "L1011400",
      "areaName": "가평군",
      "sfcStnId": "505",
      "fctId": "11B20404"
    },
    {
      "stnId": "506",
      "stnName": "금촌",
      "lat": 37.74823,
      "lon": 126.77693,
      "nx": 56,
      "ny": 131,
      "areaCode": "L1011800",
      "areaName": "파주시",
      "sfcStnId": "99",
      "fctId": "11B20305"
    },
    {
      "stnId": "507",
      "stnName": "창수",
      "lat": 38.02479,
      "lon": 127.14358,
      "nx": 63,
      "ny": 137,
      "areaCode": "L1011300",
      "areaName": "포천시",
      "sfcStnId": "504",
      "fctId": "11B20403"
    },
    {
      "stnId": "508",
      "stnName": "왕산",
      "lat": 37.46649,
      "lon": 126.36093,
      "nx": 49,
      "ny": 124,
      "areaCode": "L1010800",
      "areaName": "인천광역시",
      "sfcStnId": "112",
      "fctId": "11B20201"
    },
    {
      "stnId": "509",
      "stnName": "관악",
      "lat": 37.45284,
      "lon": 126.95015,
      "nx": 59,
      "ny": 124,
      "areaCode": "L1100300",
      "areaName": "서울서남권",
      "sfcStnId": "108",
      "fctId": "11B10101"
    },
    {
      "stnId": "510",
      "stnName": "영등포 *",
      "lat": 37.52706,
      "lon": 126.90705,
      "nx": 59,
      "ny": 126,
      "areaCode": "L1100300",
      "areaName": "서울서남권",
      "sfcStnId": "108",
      "fctId": "11B10101"
    },
    {
      "stnId": "511",
      "stnName": "공촌동",
      "lat": 37.55498,
      "lon": 126.69047,
      "nx": 55,
      "ny": 126,
      "areaCode": "L1010800",
      "areaName": "인천광역시",
      "sfcStnId": "112",
      "fctId": "11B20201"
    },
    {
      "stnId": "512",
      "stnName": "인천연수",
      "lat": 37.39684,
      "lon": 126.66209,
      "nx": 54,
      "ny": 123,
      "areaCode": "L1010800",
      "areaName": "인천광역시",
      "sfcStnId": "112",
      "fctId": "11B20201"
    },
    {
      "stnId": "513",
      "stnName": "덕적도",
      "lat": 37.22721,
      "lon": 126.14495,
      "nx": 46,
      "ny": 119,
      "areaCode": "L1013600",
      "areaName": "옹진군",
      "sfcStnId": "513",
      "fctId": "11B20201"
    },
    {
      "stnId": "514",
      "stnName": "대부도",
      "lat": 37.23767,
      "lon": 126.5787,
      "nx": 53,
      "ny": 120,
      "areaCode": "L1010400",
      "areaName": "안산시",
      "sfcStnId": "545",
      "fctId": "11B20203"
    },
    {
      "stnId": "515",
      "stnName": "운평",
      "lat": 37.08453,
      "lon": 126.77389,
      "nx": 56,
      "ny": 116,
      "areaCode": "L1013200",
      "areaName": "화성시",
      "sfcStnId": "571",
      "fctId": "11B20604"
    },
    {
      "stnId": "516",
      "stnName": "안성",
      "lat": 37.00371,
      "lon": 127.25017,
      "nx": 65,
      "ny": 115,
      "areaCode": "L1013100",
      "areaName": "안성시",
      "sfcStnId": "516",
      "fctId": "11B20611"
    },
    {
      "stnId": "517",
      "stnName": "간성",
      "lat": 38.38537,
      "lon": 128.4745,
      "nx": 85,
      "ny": 145,
      "areaCode": "L1020610",
      "areaName": "고성군평지",
      "sfcStnId": "517",
      "fctId": "11D20402"
    },
    {
      "stnId": "518",
      "stnName": "해안",
      "lat": 38.26958,
      "lon": 128.1211,
      "nx": 79,
      "ny": 142,
      "areaCode": "L1025020",
      "areaName": "양구군산간",
      "sfcStnId": "518",
      "fctId": "11D20100"
    },
    {
      "stnId": "519",
      "stnName": "사내",
      "lat": 38.07545,
      "lon": 127.51941,
      "nx": 69,
      "ny": 138,
      "areaCode": "L1021400",
      "areaName": "화천군",
      "sfcStnId": "555",
      "fctId": "11D10102"
    },
    {
      "stnId": "520",
      "stnName": "설악동",
      "lat": 38.16705,
      "lon": 128.51818,
      "nx": 86,
      "ny": 140,
      "areaCode": "L1025020",
      "areaName": "속초시산간",
      "sfcStnId": "595",
      "fctId": "11D20101"
    },
    {
      "stnId": "521",
      "stnName": "강현",
      "lat": 38.14373,
      "lon": 128.6026,
      "nx": 87,
      "ny": 140,
      "areaCode": "L1020710",
      "areaName": "양양군평지",
      "sfcStnId": "670",
      "fctId": "11D20403"
    },
    {
      "stnId": "522",
      "stnName": "화촌",
      "lat": 37.78712,
      "lon": 127.9838,
      "nx": 77,
      "ny": 132,
      "areaCode": "L1021510",
      "areaName": "홍천군평지",
      "sfcStnId": "212",
      "fctId": "11D10302"
    },
    {
      "stnId": "523",
      "stnName": "주문진",
      "lat": 37.89848,
      "lon": 128.82139,
      "nx": 91,
      "ny": 135,
      "areaCode": "L1020110",
      "areaName": "강릉시평지",
      "sfcStnId": "105",
      "fctId": "11D20501"
    },
    {
      "stnId": "524",
      "stnName": "강문",
      "lat": 37.78579,
      "lon": 128.92477,
      "nx": 93,
      "ny": 132,
      "areaCode": "L1020110",
      "areaName": "강릉시평지",
      "sfcStnId": "105",
      "fctId": "11D20501"
    },
    {
      "stnId": "525",
      "stnName": "봉평",
      "lat": 37.61234,
      "lon": 128.37725,
      "nx": 84,
      "ny": 128,
      "areaCode": "L1020910",
      "areaName": "평창군평지",
      "sfcStnId": "526",
      "fctId": "11D10503"
    },
    {
      "stnId": "526",
      "stnName": "평창",
      "lat": 37.37748,
      "lon": 128.39469,
      "nx": 84,
      "ny": 123,
      "areaCode": "L1020910",
      "areaName": "평창군평지",
      "sfcStnId": "526",
      "fctId": "11D10503"
    },
    {
      "stnId": "527",
      "stnName": "신동",
      "lat": 37.21108,
      "lon": 128.64126,
      "nx": 89,
      "ny": 120,
      "areaCode": "L1021010",
      "areaName": "정선군평지",
      "sfcStnId": "217",
      "fctId": "11D10502"
    },
    {
      "stnId": "529",
      "stnName": "원덕",
      "lat": 37.14156,
      "lon": 129.28585,
      "nx": 100,
      "ny": 119,
      "areaCode": "L1020410",
      "areaName": "삼척시평지",
      "sfcStnId": "876",
      "fctId": "11D20602"
    },
    {
      "stnId": "530",
      "stnName": "태하",
      "lat": 37.5151,
      "lon": 130.8118,
      "nx": 126,
      "ny": 128,
      "areaCode": "L1072100",
      "areaName": "울릉도독도",
      "sfcStnId": "115",
      "fctId": "11E00101"
    },
    {
      "stnId": "531",
      "stnName": "가평북면",
      "lat": 37.89807,
      "lon": 127.55219,
      "nx": 70,
      "ny": 134,
      "areaCode": "L1011400",
      "areaName": "가평군",
      "sfcStnId": "455",
      "fctId": "11B20404"
    },
    {
      "stnId": "532",
      "stnName": "의정부",
      "lat": 37.73476,
      "lon": 127.07349,
      "nx": 61,
      "ny": 130,
      "areaCode": "L1011700",
      "areaName": "의정부시",
      "sfcStnId": "532",
      "fctId": "11B20301"
    },
    {
      "stnId": "533",
      "stnName": "백사",
      "lat": 37.32777,
      "lon": 127.48073,
      "nx": 69,
      "ny": 122,
      "areaCode": "L1013000",
      "areaName": "이천시",
      "sfcStnId": "203",
      "fctId": "11B20701"
    },
    {
      "stnId": "534",
      "stnName": "장호원",
      "lat": 37.121,
      "lon": 127.61058,
      "nx": 71,
      "ny": 117,
      "areaCode": "L1013000",
      "areaName": "이천시",
      "sfcStnId": "203",
      "fctId": "11B20701"
    },
    {
      "stnId": "535",
      "stnName": "서석",
      "lat": 37.71701,
      "lon": 128.18265,
      "nx": 80,
      "ny": 130,
      "areaCode": "L1021510",
      "areaName": "홍천군평지",
      "sfcStnId": "212",
      "fctId": "11D10302"
    },
    {
      "stnId": "536",
      "stnName": "횡성",
      "lat": 37.4876,
      "lon": 127.97242,
      "nx": 77,
      "ny": 125,
      "areaCode": "L1021100",
      "areaName": "횡성군",
      "sfcStnId": "536",
      "fctId": "11D10402"
    },
    {
      "stnId": "537",
      "stnName": "임계",
      "lat": 37.48323,
      "lon": 128.84589,
      "nx": 92,
      "ny": 126,
      "areaCode": "L1027020",
      "areaName": "정선군산간",
      "sfcStnId": "674",
      "fctId": "11D20300"
    },
    {
      "stnId": "538",
      "stnName": "신서",
      "lat": 38.17254,
      "lon": 127.10301,
      "nx": 62,
      "ny": 140,
      "areaCode": "L1011200",
      "areaName": "연천군",
      "sfcStnId": "652",
      "fctId": "11B20402"
    },
    {
      "stnId": "539",
      "stnName": "포천이동",
      "lat": 38.02415,
      "lon": 127.36571,
      "nx": 66,
      "ny": 137,
      "areaCode": "L1011300",
      "areaName": "포천시",
      "sfcStnId": "504",
      "fctId": "11B20403"
    },
    {
      "stnId": "540",
      "stnName": "고양",
      "lat": 37.6373,
      "lon": 126.892,
      "nx": 58,
      "ny": 128,
      "areaCode": "L1011500",
      "areaName": "고양시",
      "sfcStnId": "540",
      "fctId": "11B20302"
    },
    {
      "stnId": "541",
      "stnName": "남양주",
      "lat": 37.63405,
      "lon": 127.15055,
      "nx": 63,
      "ny": 128,
      "areaCode": "L1012300",
      "areaName": "남양주시",
      "sfcStnId": "541",
      "fctId": "11B20502"
    },
    {
      "stnId": "542",
      "stnName": "청평",
      "lat": 37.68414,
      "lon": 127.38017,
      "nx": 67,
      "ny": 129,
      "areaCode": "L1011400",
      "areaName": "가평군",
      "sfcStnId": "455",
      "fctId": "11B20404"
    },
    {
      "stnId": "543",
      "stnName": "영종도",
      "lat": 37.499,
      "lon": 126.54958,
      "nx": 52,
      "ny": 125,
      "areaCode": "L1010800",
      "areaName": "인천광역시",
      "sfcStnId": "112",
      "fctId": "11B20201"
    },
    {
      "stnId": "544",
      "stnName": "전곡항",
      "lat": 37.18565,
      "lon": 126.6544,
      "nx": 54,
      "ny": 118,
      "areaCode": "L1013200",
      "areaName": "화성시",
      "sfcStnId": "571",
      "fctId": "11B20604"
    },
    {
      "stnId": "545",
      "stnName": "안산",
      "lat": 37.28103,
      "lon": 126.83848,
      "nx": 57,
      "ny": 120,
      "areaCode": "L1010400",
      "areaName": "안산시",
      "sfcStnId": "545",
      "fctId": "11B20203"
    },
    {
      "stnId": "546",
      "stnName": "경기광주",
      "lat": 37.43529,
      "lon": 127.2592,
      "nx": 65,
      "ny": 124,
      "areaCode": "L1013400",
      "areaName": "광주시",
      "sfcStnId": "546",
      "fctId": "11B20702"
    },
    {
      "stnId": "547",
      "stnName": "양동",
      "lat": 37.41593,
      "lon": 127.75488,
      "nx": 73,
      "ny": 124,
      "areaCode": "L1013500",
      "areaName": "양평군",
      "sfcStnId": "202",
      "fctId": "11B20503"
    },
    {
      "stnId": "548",
      "stnName": "여주",
      "lat": 37.26883,
      "lon": 127.63956,
      "nx": 71,
      "ny": 120,
      "areaCode": "L1013300",
      "areaName": "여주시",
      "sfcStnId": "548",
      "fctId": "11B20703"
    },
    {
      "stnId": "549",
      "stnName": "용인",
      "lat": 37.27011,
      "lon": 127.22178,
      "nx": 64,
      "ny": 120,
      "areaCode": "L1012900",
      "areaName": "용인시",
      "sfcStnId": "549",
      "fctId": "11B20612"
    },
    {
      "stnId": "550",
      "stnName": "오산",
      "lat": 37.18787,
      "lon": 127.04873,
      "nx": 61,
      "ny": 119,
      "areaCode": "L1012400",
      "areaName": "오산시",
      "sfcStnId": "550",
      "fctId": "11B20603"
    },
    {
      "stnId": "551",
      "stnName": "평택",
      "lat": 36.98769,
      "lon": 127.10879,
      "nx": 62,
      "ny": 114,
      "areaCode": "L1012500",
      "areaName": "평택시",
      "sfcStnId": "551",
      "fctId": "11B20606"
    },
    {
      "stnId": "552",
      "stnName": "김화",
      "lat": 38.27219,
      "lon": 127.42449,
      "nx": 67,
      "ny": 142,
      "areaCode": "L1021300",
      "areaName": "철원군",
      "sfcStnId": "95",
      "fctId": "11D10101"
    },
    {
      "stnId": "553",
      "stnName": "대진",
      "lat": 38.49235,
      "lon": 128.42813,
      "nx": 84,
      "ny": 147,
      "areaCode": "L1020610",
      "areaName": "고성군평지",
      "sfcStnId": "517",
      "fctId": "11D20402"
    },
    {
      "stnId": "554",
      "stnName": "미시령",
      "lat": 38.21439,
      "lon": 128.43713,
      "nx": 84,
      "ny": 141,
      "areaCode": "L1025020",
      "areaName": "고성군산간",
      "sfcStnId": "595",
      "fctId": "11D20100"
    },
    {
      "stnId": "555",
      "stnName": "화천",
      "lat": 38.09638,
      "lon": 127.70285,
      "nx": 72,
      "ny": 138,
      "areaCode": "L1021400",
      "areaName": "화천군",
      "sfcStnId": "555",
      "fctId": "11D10102"
    },
    {
      "stnId": "556",
      "stnName": "양구",
      "lat": 38.09799,
      "lon": 127.98527,
      "nx": 77,
      "ny": 139,
      "areaCode": "L1021710",
      "areaName": "양구군평지",
      "sfcStnId": "556",
      "fctId": "11D10202"
    },
    {
      "stnId": "557",
      "stnName": "기린",
      "lat": 37.95263,
      "lon": 128.31862,
      "nx": 83,
      "ny": 136,
      "areaCode": "L1025020",
      "areaName": "인제군산간",
      "sfcStnId": "595",
      "fctId": "11D20100"
    },
    {
      "stnId": "558",
      "stnName": "팔봉",
      "lat": 37.68614,
      "lon": 127.70066,
      "nx": 72,
      "ny": 130,
      "areaCode": "L1021510",
      "areaName": "홍천군평지",
      "sfcStnId": "212",
      "fctId": "11D10302"
    },
    {
      "stnId": "559",
      "stnName": "내면",
      "lat": 37.77805,
      "lon": 128.39728,
      "nx": 84,
      "ny": 132,
      "areaCode": "L1026020",
      "areaName": "홍천군산간",
      "sfcStnId": "100",
      "fctId": "11D20200"
    },
    {
      "stnId": "560",
      "stnName": "진부",
      "lat": 37.64794,
      "lon": 128.56447,
      "nx": 87,
      "ny": 129,
      "areaCode": "L1026020",
      "areaName": "평창군산간",
      "sfcStnId": "100",
      "fctId": "11D20202"
    },
    {
      "stnId": "561",
      "stnName": "청일",
      "lat": 37.58219,
      "lon": 128.15275,
      "nx": 80,
      "ny": 127,
      "areaCode": "L1021100",
      "areaName": "횡성군",
      "sfcStnId": "536",
      "fctId": "11D10402"
    },
    {
      "stnId": "562",
      "stnName": "영월주천",
      "lat": 37.27534,
      "lon": 128.26942,
      "nx": 82,
      "ny": 121,
      "areaCode": "L1020800",
      "areaName": "영월군",
      "sfcStnId": "121",
      "fctId": "11D10501"
    },
    {
      "stnId": "563",
      "stnName": "북평",
      "lat": 37.46356,
      "lon": 128.6828,
      "nx": 89,
      "ny": 125,
      "areaCode": "L1021010",
      "areaName": "정선군평지",
      "sfcStnId": "217",
      "fctId": "11D10502"
    },
    {
      "stnId": "565",
      "stnName": "시흥",
      "lat": 37.39154,
      "lon": 126.77795,
      "nx": 56,
      "ny": 123,
      "areaCode": "L1010500",
      "areaName": "시흥시",
      "sfcStnId": "565",
      "fctId": "11B20202"
    },
    {
      "stnId": "566",
      "stnName": "연곡",
      "lat": 37.85155,
      "lon": 128.81924,
      "nx": 91,
      "ny": 134,
      "areaCode": "L1020110",
      "areaName": "강릉시평지",
      "sfcStnId": "105",
      "fctId": "11D20501"
    },
    {
      "stnId": "567",
      "stnName": "적성",
      "lat": 37.95332,
      "lon": 126.93176,
      "nx": 59,
      "ny": 135,
      "areaCode": "L1011800",
      "areaName": "파주시",
      "sfcStnId": "99",
      "fctId": "11B20305"
    },
    {
      "stnId": "568",
      "stnName": "일동",
      "lat": 37.95875,
      "lon": 127.31349,
      "nx": 65,
      "ny": 135,
      "areaCode": "L1011300",
      "areaName": "포천시",
      "sfcStnId": "504",
      "fctId": "11B20403"
    },
    {
      "stnId": "569",
      "stnName": "구리",
      "lat": 37.58224,
      "lon": 127.15698,
      "nx": 63,
      "ny": 127,
      "areaCode": "L1012200",
      "areaName": "구리시",
      "sfcStnId": "569",
      "fctId": "11B20501"
    },
    {
      "stnId": "570",
      "stnName": "금곡",
      "lat": 37.6232,
      "lon": 126.64233,
      "nx": 54,
      "ny": 128,
      "areaCode": "L1010800",
      "areaName": "인천광역시",
      "sfcStnId": "112",
      "fctId": "11B20201"
    },
    {
      "stnId": "571",
      "stnName": "화성",
      "lat": 37.19525,
      "lon": 126.82094,
      "nx": 57,
      "ny": 119,
      "areaCode": "L1013200",
      "areaName": "화성시",
      "sfcStnId": "571",
      "fctId": "11B20604"
    },
    {
      "stnId": "572",
      "stnName": "성남",
      "lat": 37.42093,
      "lon": 127.12476,
      "nx": 62,
      "ny": 124,
      "areaCode": "L1012000",
      "areaName": "성남시",
      "sfcStnId": "572",
      "fctId": "11B20605"
    },
    {
      "stnId": "573",
      "stnName": "청운",
      "lat": 37.55821,
      "lon": 127.71352,
      "nx": 72,
      "ny": 127,
      "areaCode": "L1013500",
      "areaName": "양평군",
      "sfcStnId": "202",
      "fctId": "11B20503"
    },
    {
      "stnId": "574",
      "stnName": "대신",
      "lat": 37.3694,
      "lon": 127.58711,
      "nx": 70,
      "ny": 123,
      "areaCode": "L1013300",
      "areaName": "여주시",
      "sfcStnId": "548",
      "fctId": "11B20703"
    },
    {
      "stnId": "575",
      "stnName": "용인이동",
      "lat": 37.1058,
      "lon": 127.18766,
      "nx": 64,
      "ny": 117,
      "areaCode": "L1012900",
      "areaName": "용인시",
      "sfcStnId": "549",
      "fctId": "11B20612"
    },
    {
      "stnId": "576",
      "stnName": "백암",
      "lat": 37.12966,
      "lon": 127.36632,
      "nx": 67,
      "ny": 117,
      "areaCode": "L1012900",
      "areaName": "용인시",
      "sfcStnId": "549",
      "fctId": "11B20612"
    },
    {
      "stnId": "577",
      "stnName": "장봉도",
      "lat": 37.53411,
      "lon": 126.33654,
      "nx": 49,
      "ny": 126,
      "areaCode": "L1013600",
      "areaName": "옹진군",
      "sfcStnId": "513",
      "fctId": "11B20201"
    },
    {
      "stnId": "578",
      "stnName": "호도",
      "lat": 36.3012,
      "lon": 126.26628,
      "nx": 48,
      "ny": 99,
      "areaCode": "L1031400",
      "areaName": "보령시",
      "sfcStnId": "235",
      "fctId": "11C20201"
    },
    {
      "stnId": "579",
      "stnName": "하장",
      "lat": 37.36684,
      "lon": 128.9133,
      "nx": 93,
      "ny": 123,
      "areaCode": "L1027020",
      "areaName": "삼척시산간",
      "sfcStnId": "674",
      "fctId": "11D20300"
    },
    {
      "stnId": "580",
      "stnName": "옥계",
      "lat": 37.61345,
      "lon": 129.02888,
      "nx": 95,
      "ny": 129,
      "areaCode": "L1020110",
      "areaName": "강릉시평지",
      "sfcStnId": "105",
      "fctId": "11D20501"
    },
    {
      "stnId": "581",
      "stnName": "상동",
      "lat": 37.11663,
      "lon": 128.77441,
      "nx": 91,
      "ny": 118,
      "areaCode": "L1020800",
      "areaName": "영월군",
      "sfcStnId": "121",
      "fctId": "11D10501"
    },
    {
      "stnId": "582",
      "stnName": "신림",
      "lat": 37.23146,
      "lon": 128.07993,
      "nx": 79,
      "ny": 120,
      "areaCode": "L1021200",
      "areaName": "원주시",
      "sfcStnId": "114",
      "fctId": "11D10401"
    },
    {
      "stnId": "583",
      "stnName": "안흥",
      "lat": 37.46463,
      "lon": 128.1551,
      "nx": 80,
      "ny": 125,
      "areaCode": "L1021100",
      "areaName": "횡성군",
      "sfcStnId": "536",
      "fctId": "11D10402"
    },
    {
      "stnId": "585",
      "stnName": "신남",
      "lat": 37.95996,
      "lon": 128.0742,
      "nx": 78,
      "ny": 136,
      "areaCode": "L1021810",
      "areaName": "인제군평지",
      "sfcStnId": "211",
      "fctId": "11D10201"
    },
    {
      "stnId": "586",
      "stnName": "북산",
      "lat": 38.03209,
      "lon": 127.87694,
      "nx": 75,
      "ny": 137,
      "areaCode": "L1021600",
      "areaName": "춘천시",
      "sfcStnId": "101",
      "fctId": "11D10301"
    },
    {
      "stnId": "587",
      "stnName": "방산",
      "lat": 38.22642,
      "lon": 127.95329,
      "nx": 76,
      "ny": 141,
      "areaCode": "L1021710",
      "areaName": "양구군평지",
      "sfcStnId": "556",
      "fctId": "11D10202"
    },
    {
      "stnId": "588",
      "stnName": "남산",
      "lat": 37.79066,
      "lon": 127.64289,
      "nx": 71,
      "ny": 132,
      "areaCode": "L1021600",
      "areaName": "춘천시",
      "sfcStnId": "101",
      "fctId": "11D10301"
    },
    {
      "stnId": "589",
      "stnName": "능곡",
      "lat": 37.70236,
      "lon": 126.79026,
      "nx": 57,
      "ny": 130,
      "areaCode": "L1011500",
      "areaName": "고양시",
      "sfcStnId": "540",
      "fctId": "11B20302"
    },
    {
      "stnId": "590",
      "stnName": "과천",
      "lat": 37.44028,
      "lon": 127.00249,
      "nx": 60,
      "ny": 124,
      "areaCode": "L1010300",
      "areaName": "과천시",
      "sfcStnId": "590",
      "fctId": "11B10102"
    },
    {
      "stnId": "591",
      "stnName": "치악산",
      "lat": 37.41554,
      "lon": 128.05047,
      "nx": 78,
      "ny": 124,
      "areaCode": "L1021200",
      "areaName": "원주시",
      "sfcStnId": "114",
      "fctId": "11D10403"
    },
    {
      "stnId": "592",
      "stnName": "부론",
      "lat": 37.23162,
      "lon": 127.74866,
      "nx": 73,
      "ny": 120,
      "areaCode": "L1021200",
      "areaName": "원주시",
      "sfcStnId": "114",
      "fctId": "11D10401"
    },
    {
      "stnId": "593",
      "stnName": "양양영덕",
      "lat": 38.00731,
      "lon": 128.54069,
      "nx": 86,
      "ny": 137,
      "areaCode": "L1025020",
      "areaName": "양양군산간",
      "sfcStnId": "595",
      "fctId": "11D20100"
    },
    {
      "stnId": "594",
      "stnName": "서화",
      "lat": 38.2533,
      "lon": 128.21,
      "nx": 81,
      "ny": 142,
      "areaCode": "L1025020",
      "areaName": "인제군산간",
      "sfcStnId": "595",
      "fctId": "11D20100"
    },
    {
      "stnId": "595",
      "stnName": "진부령",
      "lat": 38.26414,
      "lon": 128.37415,
      "nx": 83,
      "ny": 142,
      "areaCode": "L1025020",
      "areaName": "고성군산간",
      "sfcStnId": "595",
      "fctId": "11D20100"
    },
    {
      "stnId": "596",
      "stnName": "오색",
      "lat": 38.07699,
      "lon": 128.49325,
      "nx": 86,
      "ny": 138,
      "areaCode": "L1025020",
      "areaName": "양양군산간",
      "sfcStnId": "595",
      "fctId": "11D20100"
    },
    {
      "stnId": "597",
      "stnName": "대화",
      "lat": 37.54548,
      "lon": 128.44108,
      "nx": 85,
      "ny": 127,
      "areaCode": "L1020910",
      "areaName": "평창군평지",
      "sfcStnId": "526",
      "fctId": "11D10503"
    },
    {
      "stnId": "598",
      "stnName": "양주",
      "lat": 37.83118,
      "lon": 126.9905,
      "nx": 60,
      "ny": 132,
      "areaCode": "L1011600",
      "areaName": "양주시",
      "sfcStnId": "598",
      "fctId": "11B20304"
    },
    {
      "stnId": "599",
      "stnName": "광릉",
      "lat": 37.76172,
      "lon": 127.16977,
      "nx": 63,
      "ny": 131,
      "areaCode": "L1011300",
      "areaName": "포천시",
      "sfcStnId": "504",
      "fctId": "11B20403"
    },
    {
      "stnId": "600",
      "stnName": "금왕",
      "lat": 36.97369,
      "lon": 127.58973,
      "nx": 71,
      "ny": 114,
      "areaCode": "L1041100",
      "areaName": "음성군",
      "sfcStnId": "619",
      "fctId": "11C10103"
    },
    {
      "stnId": "601",
      "stnName": "단양",
      "lat": 36.98552,
      "lon": 128.3669,
      "nx": 84,
      "ny": 115,
      "areaCode": "L1041200",
      "areaName": "단양군",
      "sfcStnId": "601",
      "fctId": "11C10202"
    },
    {
      "stnId": "602",
      "stnName": "진천",
      "lat": 36.8634,
      "lon": 127.4625,
      "nx": 68,
      "ny": 112,
      "areaCode": "L1041000",
      "areaName": "진천군",
      "sfcStnId": "602",
      "fctId": "11C10102"
    },
    {
      "stnId": "603",
      "stnName": "괴산",
      "lat": 36.81612,
      "lon": 127.77758,
      "nx": 74,
      "ny": 111,
      "areaCode": "L1040400",
      "areaName": "괴산군",
      "sfcStnId": "603",
      "fctId": "11C10303"
    },
    {
      "stnId": "604",
      "stnName": "옥천",
      "lat": 36.29994,
      "lon": 127.59655,
      "nx": 71,
      "ny": 99,
      "areaCode": "L1040600",
      "areaName": "옥천군",
      "sfcStnId": "604",
      "fctId": "11C10403"
    },
    {
      "stnId": "605",
      "stnName": "영동",
      "lat": 36.16313,
      "lon": 127.75981,
      "nx": 74,
      "ny": 96,
      "areaCode": "L1040700",
      "areaName": "영동군",
      "sfcStnId": "605",
      "fctId": "11C10402"
    },
    {
      "stnId": "606",
      "stnName": "대산",
      "lat": 37.01061,
      "lon": 126.38808,
      "nx": 50,
      "ny": 115,
      "areaCode": "L1031300",
      "areaName": "서산시",
      "sfcStnId": "129",
      "fctId": "11C20101"
    },
    {
      "stnId": "607",
      "stnName": "근흥",
      "lat": 36.67309,
      "lon": 126.13541,
      "nx": 45,
      "ny": 107,
      "areaCode": "L1031100",
      "areaName": "태안군",
      "sfcStnId": "627",
      "fctId": "11C20102"
    },
    {
      "stnId": "608",
      "stnName": "홍북",
      "lat": 36.62774,
      "lon": 126.64512,
      "nx": 54,
      "ny": 106,
      "areaCode": "L1031600",
      "areaName": "홍성군",
      "sfcStnId": "177",
      "fctId": "11C20104"
    },
    {
      "stnId": "609",
      "stnName": "삽시도",
      "lat": 36.33796,
      "lon": 126.35623,
      "nx": 49,
      "ny": 100,
      "areaCode": "L1031400",
      "areaName": "보령시",
      "sfcStnId": "235",
      "fctId": "11C20201"
    },
    {
      "stnId": "610",
      "stnName": "홍성죽도",
      "lat": 36.52003,
      "lon": 126.44237,
      "nx": 51,
      "ny": 104,
      "areaCode": "L1031600",
      "areaName": "홍성군",
      "sfcStnId": "177",
      "fctId": "11C20104"
    },
    {
      "stnId": "611",
      "stnName": "세종연서",
      "lat": 36.5722,
      "lon": 127.2836,
      "nx": 65,
      "ny": 105,
      "areaCode": "L1031800",
      "areaName": "세종시",
      "sfcStnId": "239",
      "fctId": "11C20404"
    },
    {
      "stnId": "612",
      "stnName": "공주",
      "lat": 36.48284,
      "lon": 127.13646,
      "nx": 63,
      "ny": 103,
      "areaCode": "L1030300",
      "areaName": "공주시",
      "sfcStnId": "612",
      "fctId": "11C20402"
    },
    {
      "stnId": "614",
      "stnName": "서천",
      "lat": 36.06248,
      "lon": 126.70411,
      "nx": 55,
      "ny": 94,
      "areaCode": "L1031500",
      "areaName": "서천군",
      "sfcStnId": "614",
      "fctId": "11C20202"
    },
    {
      "stnId": "615",
      "stnName": "논산",
      "lat": 36.21164,
      "lon": 127.10815,
      "nx": 62,
      "ny": 97,
      "areaCode": "L1030500",
      "areaName": "논산시",
      "sfcStnId": "615",
      "fctId": "11C20602"
    },
    {
      "stnId": "616",
      "stnName": "당진",
      "lat": 36.88936,
      "lon": 126.61739,
      "nx": 54,
      "ny": 112,
      "areaCode": "L1031200",
      "areaName": "당진시",
      "sfcStnId": "616",
      "fctId": "11C20103"
    },
    {
      "stnId": "617",
      "stnName": "성거",
      "lat": 36.87817,
      "lon": 127.1561,
      "nx": 63,
      "ny": 112,
      "areaCode": "L1030200",
      "areaName": "천안시",
      "sfcStnId": "232",
      "fctId": "11C20301"
    },
    {
      "stnId": "618",
      "stnName": "청양",
      "lat": 36.42371,
      "lon": 126.77906,
      "nx": 57,
      "ny": 102,
      "areaCode": "L1030900",
      "areaName": "청양군",
      "sfcStnId": "618",
      "fctId": "11C20502"
    },
    {
      "stnId": "619",
      "stnName": "음성",
      "lat": 36.92297,
      "lon": 127.70241,
      "nx": 73,
      "ny": 113,
      "areaCode": "L1041100",
      "areaName": "음성군",
      "sfcStnId": "619",
      "fctId": "11C10103"
    },
    {
      "stnId": "620",
      "stnName": "엄정",
      "lat": 37.07371,
      "lon": 127.90353,
      "nx": 76,
      "ny": 116,
      "areaCode": "L1040800",
      "areaName": "충주시",
      "sfcStnId": "127",
      "fctId": "11C10101"
    },
    {
      "stnId": "621",
      "stnName": "수산",
      "lat": 36.97325,
      "lon": 128.21421,
      "nx": 81,
      "ny": 114,
      "areaCode": "L1040900",
      "areaName": "제천시",
      "sfcStnId": "221",
      "fctId": "11C10201"
    },
    {
      "stnId": "622",
      "stnName": "수안보",
      "lat": 36.83909,
      "lon": 128.00791,
      "nx": 78,
      "ny": 111,
      "areaCode": "L1040800",
      "areaName": "충주시",
      "sfcStnId": "127",
      "fctId": "11C10101"
    },
    {
      "stnId": "623",
      "stnName": "증평",
      "lat": 36.7956,
      "lon": 127.562,
      "nx": 70,
      "ny": 110,
      "areaCode": "L1041300",
      "areaName": "증평군",
      "sfcStnId": "623",
      "fctId": "11C10304"
    },
    {
      "stnId": "624",
      "stnName": "상당",
      "lat": 36.62436,
      "lon": 127.6571,
      "nx": 72,
      "ny": 106,
      "areaCode": "L1040100",
      "areaName": "청주시",
      "sfcStnId": "131",
      "fctId": "11C10301"
    },
    {
      "stnId": "625",
      "stnName": "속리산",
      "lat": 36.51724,
      "lon": 127.8167,
      "nx": 75,
      "ny": 104,
      "areaCode": "L1040300",
      "areaName": "보은군",
      "sfcStnId": "226",
      "fctId": "11C10302"
    },
    {
      "stnId": "626",
      "stnName": "옥천청산",
      "lat": 36.37052,
      "lon": 127.81538,
      "nx": 75,
      "ny": 101,
      "areaCode": "L1040600",
      "areaName": "옥천군",
      "sfcStnId": "604",
      "fctId": "11C10403"
    },
    {
      "stnId": "627",
      "stnName": "태안",
      "lat": 36.75851,
      "lon": 126.29641,
      "nx": 48,
      "ny": 109,
      "areaCode": "L1031100",
      "areaName": "태안군",
      "sfcStnId": "627",
      "fctId": "11C20102"
    },
    {
      "stnId": "628",
      "stnName": "예산",
      "lat": 36.74213,
      "lon": 126.81437,
      "nx": 57,
      "ny": 109,
      "areaCode": "L1031000",
      "areaName": "예산군",
      "sfcStnId": "628",
      "fctId": "11C20303"
    },
    {
      "stnId": "629",
      "stnName": "세종전의",
      "lat": 36.69076,
      "lon": 127.20047,
      "nx": 64,
      "ny": 108,
      "areaCode": "L1031800",
      "areaName": "세종시",
      "sfcStnId": "239",
      "fctId": "11C20404"
    },
    {
      "stnId": "630",
      "stnName": "노은",
      "lat": 37.04557,
      "lon": 127.79974,
      "nx": 74,
      "ny": 116,
      "areaCode": "L1040800",
      "areaName": "충주시",
      "sfcStnId": "127",
      "fctId": "11C10101"
    },
    {
      "stnId": "631",
      "stnName": "송도",
      "lat": 37.34775,
      "lon": 126.61535,
      "nx": 54,
      "ny": 122,
      "areaCode": "L1010800",
      "areaName": "인천광역시",
      "sfcStnId": "112",
      "fctId": "11B20201"
    },
    {
      "stnId": "632",
      "stnName": "유구",
      "lat": 36.54069,
      "lon": 126.93356,
      "nx": 59,
      "ny": 104,
      "areaCode": "L1030300",
      "areaName": "공주시",
      "sfcStnId": "612",
      "fctId": "11C20402"
    },
    {
      "stnId": "633",
      "stnName": "정안",
      "lat": 36.55114,
      "lon": 127.09383,
      "nx": 62,
      "ny": 105,
      "areaCode": "L1030300",
      "areaName": "공주시",
      "sfcStnId": "612",
      "fctId": "11C20402"
    },
    {
      "stnId": "634",
      "stnName": "아산",
      "lat": 36.84578,
      "lon": 126.86536,
      "nx": 58,
      "ny": 111,
      "areaCode": "L1030400",
      "areaName": "아산시",
      "sfcStnId": "634",
      "fctId": "11C20302"
    },
    {
      "stnId": "635",
      "stnName": "양화",
      "lat": 36.1319,
      "lon": 126.86024,
      "nx": 58,
      "ny": 96,
      "areaCode": "L1030800",
      "areaName": "부여군",
      "sfcStnId": "236",
      "fctId": "11C20501"
    },
    {
      "stnId": "636",
      "stnName": "계룡",
      "lat": 36.3132,
      "lon": 127.2407,
      "nx": 65,
      "ny": 100,
      "areaCode": "L1031700",
      "areaName": "계룡시",
      "sfcStnId": "636",
      "fctId": "11C20403"
    },
    {
      "stnId": "637",
      "stnName": "신평",
      "lat": 36.89376,
      "lon": 126.80557,
      "nx": 57,
      "ny": 112,
      "areaCode": "L1031200",
      "areaName": "당진시",
      "sfcStnId": "616",
      "fctId": "11C20103"
    },
    {
      "stnId": "638",
      "stnName": "영춘",
      "lat": 37.08348,
      "lon": 128.48473,
      "nx": 86,
      "ny": 117,
      "areaCode": "L1041200",
      "areaName": "단양군",
      "sfcStnId": "601",
      "fctId": "11C10202"
    },
    {
      "stnId": "639",
      "stnName": "덕산",
      "lat": 36.90433,
      "lon": 128.14564,
      "nx": 80,
      "ny": 113,
      "areaCode": "L1040900",
      "areaName": "제천시",
      "sfcStnId": "221",
      "fctId": "11C10201"
    },
    {
      "stnId": "640",
      "stnName": "청천",
      "lat": 36.67106,
      "lon": 127.86167,
      "nx": 75,
      "ny": 108,
      "areaCode": "L1040400",
      "areaName": "괴산군",
      "sfcStnId": "603",
      "fctId": "11C10303"
    },
    {
      "stnId": "641",
      "stnName": "가덕",
      "lat": 36.54612,
      "lon": 127.52399,
      "nx": 70,
      "ny": 105,
      "areaCode": "L1040100",
      "areaName": "청주시",
      "sfcStnId": "131",
      "fctId": "11C10301"
    },
    {
      "stnId": "642",
      "stnName": "문화",
      "lat": 36.3105,
      "lon": 127.40609,
      "nx": 68,
      "ny": 100,
      "areaCode": "L1030100",
      "areaName": "대전광역시",
      "sfcStnId": "642",
      "fctId": "11C20401"
    },
    {
      "stnId": "643",
      "stnName": "세천",
      "lat": 36.34019,
      "lon": 127.49378,
      "nx": 69,
      "ny": 100,
      "areaCode": "L1030100",
      "areaName": "대전광역시",
      "sfcStnId": "133",
      "fctId": "11C20401"
    },
    {
      "stnId": "644",
      "stnName": "연무",
      "lat": 36.13662,
      "lon": 127.09004,
      "nx": 62,
      "ny": 96,
      "areaCode": "L1030500",
      "areaName": "논산시",
      "sfcStnId": "615",
      "fctId": "11C20602"
    },
    {
      "stnId": "645",
      "stnName": "서부",
      "lat": 36.57887,
      "lon": 126.51099,
      "nx": 52,
      "ny": 105,
      "areaCode": "L1031600",
      "areaName": "홍성군",
      "sfcStnId": "177",
      "fctId": "11C20104"
    },
    {
      "stnId": "646",
      "stnName": "춘장대",
      "lat": 36.17406,
      "lon": 126.52845,
      "nx": 52,
      "ny": 96,
      "areaCode": "L1031500",
      "areaName": "서천군",
      "sfcStnId": "614",
      "fctId": "11C20202"
    },
    {
      "stnId": "647",
      "stnName": "가곡",
      "lat": 36.12504,
      "lon": 127.69238,
      "nx": 73,
      "ny": 96,
      "areaCode": "L1040700",
      "areaName": "영동군",
      "sfcStnId": "135",
      "fctId": "11C10402"
    },
    {
      "stnId": "648",
      "stnName": "장동",
      "lat": 36.41347,
      "lon": 127.43821,
      "nx": 68,
      "ny": 102,
      "areaCode": "L1030100",
      "areaName": "대전광역시",
      "sfcStnId": "133",
      "fctId": "11C20401"
    },
    {
      "stnId": "649",
      "stnName": "부평",
      "lat": 37.47223,
      "lon": 126.75072,
      "nx": 56,
      "ny": 125,
      "areaCode": "L1010800",
      "areaName": "인천광역시",
      "sfcStnId": "112",
      "fctId": "11B20201"
    },
    {
      "stnId": "650",
      "stnName": "양지",
      "lat": 38.27264,
      "lon": 127.27737,
      "nx": 65,
      "ny": 142,
      "areaCode": "L1021300",
      "areaName": "철원군",
      "sfcStnId": "95",
      "fctId": "11D10101"
    },
    {
      "stnId": "651",
      "stnName": "외촌",
      "lat": 38.27717,
      "lon": 127.2057,
      "nx": 63,
      "ny": 142,
      "areaCode": "L1021300",
      "areaName": "철원군",
      "sfcStnId": "95",
      "fctId": "11D10101"
    },
    {
      "stnId": "652",
      "stnName": "연천청산",
      "lat": 37.98998,
      "lon": 127.07267,
      "nx": 61,
      "ny": 136,
      "areaCode": "L1011200",
      "areaName": "연천군",
      "sfcStnId": "652",
      "fctId": "11B20402"
    },
    {
      "stnId": "654",
      "stnName": "자월도",
      "lat": 37.25404,
      "lon": 126.30761,
      "nx": 48,
      "ny": 120,
      "areaCode": "L1013600",
      "areaName": "옹진군",
      "sfcStnId": "513",
      "fctId": "11B20201"
    },
    {
      "stnId": "655",
      "stnName": "소청도",
      "lat": 37.76024,
      "lon": 124.72912,
      "nx": 21,
      "ny": 131,
      "areaCode": "L1014100",
      "areaName": "서해5도",
      "sfcStnId": "102",
      "fctId": "11A00103"
    },
    {
      "stnId": "656",
      "stnName": "볼음도",
      "lat": 37.67085,
      "lon": 126.19222,
      "nx": 46,
      "ny": 129,
      "areaCode": "L1010900",
      "areaName": "강화군",
      "sfcStnId": "201",
      "fctId": "11B20101"
    },
    {
      "stnId": "657",
      "stnName": "대천항",
      "lat": 36.32435,
      "lon": 126.50213,
      "nx": 52,
      "ny": 100,
      "areaCode": "L1031400",
      "areaName": "보령시",
      "sfcStnId": "235",
      "fctId": "11C20201"
    },
    {
      "stnId": "658",
      "stnName": "만리포",
      "lat": 36.7683,
      "lon": 126.12143,
      "nx": 45,
      "ny": 109,
      "areaCode": "L1031100",
      "areaName": "태안군",
      "sfcStnId": "627",
      "fctId": "11C20102"
    },
    {
      "stnId": "659",
      "stnName": "계룡산",
      "lat": 36.343,
      "lon": 127.2057,
      "nx": 64,
      "ny": 100,
      "areaCode": "L1031700",
      "areaName": "계룡시",
      "sfcStnId": "636",
      "fctId": "11C20403"
    },
    {
      "stnId": "660",
      "stnName": "면온",
      "lat": 37.56197,
      "lon": 128.37762,
      "nx": 84,
      "ny": 127,
      "areaCode": "L1020910",
      "areaName": "평창군평지",
      "sfcStnId": "526",
      "fctId": "11D10504"
    },
    {
      "stnId": "661",
      "stnName": "현내",
      "lat": 38.54385,
      "lon": 128.40245,
      "nx": 84,
      "ny": 148,
      "areaCode": "L1020610",
      "areaName": "고성군평지",
      "sfcStnId": "517",
      "fctId": "11D20402"
    },
    {
      "stnId": "662",
      "stnName": "승봉도",
      "lat": 37.17064,
      "lon": 126.29695,
      "nx": 48,
      "ny": 118,
      "areaCode": "L1013600",
      "areaName": "옹진군",
      "sfcStnId": "513",
      "fctId": "11B20201"
    },
    {
      "stnId": "663",
      "stnName": "목덕도",
      "lat": 36.92863,
      "lon": 125.78691,
      "nx": 39,
      "ny": 113,
      "areaCode": "L1013600",
      "areaName": "옹진군",
      "sfcStnId": "513",
      "fctId": "11B20201"
    },
    {
      "stnId": "664",
      "stnName": "영흥도",
      "lat": 37.22468,
      "lon": 126.45838,
      "nx": 51,
      "ny": 119,
      "areaCode": "L1013600",
      "areaName": "옹진군",
      "sfcStnId": "513",
      "fctId": "11B20201"
    },
    {
      "stnId": "665",
      "stnName": "무의도",
      "lat": 37.39043,
      "lon": 126.42521,
      "nx": 50,
      "ny": 123,
      "areaCode": "L1010800",
      "areaName": "인천광역시",
      "sfcStnId": "112",
      "fctId": "11B20201"
    },
    {
      "stnId": "666",
      "stnName": "안도",
      "lat": 36.95872,
      "lon": 126.16832,
      "nx": 46,
      "ny": 113,
      "areaCode": "L1031100",
      "areaName": "태안군",
      "sfcStnId": "627",
      "fctId": "11C20102"
    },
    {
      "stnId": "667",
      "stnName": "옹도",
      "lat": 36.6476,
      "lon": 126.0093,
      "nx": 43,
      "ny": 107,
      "areaCode": "L1031100",
      "areaName": "태안군",
      "sfcStnId": "627",
      "fctId": "11C20102"
    },